Identifiant,Ancien_nom_officiel,Identifiant_du_nom_officiel,Nom_officiel,Type_entite,Latitude,Longitude,Feuillet_cartographique,Code_geographique,Municipalite,Designation,Date_decision,IDE,Origine_linguistique,Partie_specifique,Partie_generique,Sexe
100227,"Lambert, Lac",14,"Aaron, Lac",Lac,47.253450,-71.828493,21M05,34902,Lac-Blanc,Territoire non organisé,1981-04-02,56a59820bbe411d892e2080020a0f4c9,Français,Lambert,Lac,
4604,"Bee, Lac",63,"Abeilles, Lac des",Lac,47.069491,-72.529999,31P02,35902,Lac-Masketsi,Territoire non organisé,1971-06-18,5c9314d4bbe411d892e2080020a0f4c9,Anglais,Bee,Lac,
29133,"Huard, Lac",102,"Abies, Lac de l'",Lac,46.193333,-74.847499,31J02,78120,Labelle,Municipalité,1969-06-06,6086e45fbbe411d892e2080020a0f4c9,Français,Huard,Lac,
71271,"Ramezay, Lac",102,"Abies, Lac de l'",Lac,46.193333,-74.847499,31J02,78120,Labelle,Municipalité,1975-12-02,6086e45fbbe411d892e2080020a0f4c9,Inconnu,Ramezay,Lac,
115,"Abitibi",,,Division de recensement,48.000000,-76.000000,32C01,89040,Senneterre,Ville,1994-08-19,397fb5e83c28488fbb063427376e03a6,Algonquin,Abitibi,,
39445,"Martin, Lac",149,"Abri, Lac de l'",Lac,49.632221,-73.918888,32H12,91902,Lac-Ashuapmushuan,Territoire non organisé,1972-03-28,662359dcbbe411d892e2080020a0f4c9,Français,Martin,Lac,
103104,"Cayens, Anse des",169,"Acadiens, Anse des",Anse,49.633054,-62.664166,12E10,98020,L'Île-d'Anticosti,Municipalité,1981-04-02,67eb96c7bbe411d892e2080020a0f4c9,Français,Cayens,Anse des,
61718,"Tapp, Lac",216,"Achille, Lac",Lac,47.526727,-71.529404,21M12,21904,Lac-Jacques-Cartier,Territoire non organisé,1971-06-01,6f875fc5bbe411d892e2080020a0f4c9,Anglais,Tapp,Lac,
1686,"Antoine, Lac",219,"Achille, Lac à",Lac,46.701666,-70.720277,21L10,19045,Saint-Nérée-de-Bellechasse,Municipalité,1987-09-11,6fab3b78bbe411d892e2080020a0f4c9,Français,Antoine,Lac,
23753,"Françoise, Lac",298,"Adélard, Lac",Lac,49.547499,-68.206111,22F09,96902,Rivière-aux-Outardes,Territoire non organisé,1972-12-12,7aee1384bbe411d892e2080020a0f4c9,Français,Françoise,Lac,
73879,"Pitre, Lac à",323,"Adolphe, Lac",Lac,46.791666,-72.975832,31I15,36033,Shawinigan,Ville,1977-02-18,7f106d1cbbe411d892e2080020a0f4c9,Français,Pitre,Lac à,
104539,"Okai Sakahikan",329,"Adonis, Lac",Lac,47.422457,-74.669135,31O07,79910,Lac-Bazinet,Territoire non organisé,1981-07-09,7f4e8791bbe411d892e2080020a0f4c9,Attikamek,Okai Sakahikan,,
104538,"Okai Cipicic",330,"Adonis, Rivière",Rivière,47.445858,-74.652869,31O07,79910,Lac-Bazinet,Territoire non organisé,1981-07-09,80ce70d2bbe411d892e2080020a0f4c9,Attikamek,Okai Cipicic,,
50873,"Potvin, Lac",375,"Agattegiche, Lac",Lac,47.880277,-71.919166,21M13,21904,Lac-Jacques-Cartier,Territoire non organisé,1971-06-01,86462149bbe411d892e2080020a0f4c9,Français,Potvin,Lac,
51624,"Quabie, Lac",408,"Agonès, Lac",Lac,47.182224,-77.758400,31N04,84902,Lac-Nilgaut,Territoire non organisé,1973-01-16,8c125a55bbe411d892e2080020a0f4c9,Inconnu,Quabie,Lac,
502,"Aiglon, Île à l'",466,"Aigle, Île à l'",Île,45.705555,-73.466943,31H11,60013,Repentigny,Ville,1973-11-20,94357ac1bbe411d892e2080020a0f4c9,Français,Aiglon,Île à l',
20036,"Eagle, Lac",476,"Aigle, Lac de l'",Lac,46.101944,-74.119166,31J01,78802,Doncaster,Réserve indienne,1969-01-24,948dfb08bbe411d892e2080020a0f4c9,Anglais,Eagle,Lac,
343391,"Kiniw Sìbì",484,"Aigle, Rivière de l'",Rivière,46.449166,-76.043610,31K08,83088,Montcerf-Lytton,Municipalité,1999-04-30,965bb62fbbe411d892e2080020a0f4c9,Algonquin,Kiniw Sìbì,,
79902,"Laurin, Lac",506,"Aiglon, Lac de l'",Lac,49.833610,-73.889999,32H13,91902,Lac-Ashuapmushuan,Territoire non organisé,1972-03-28,983f1c40bbe411d892e2080020a0f4c9,Français,Laurin,Lac,
184421,"Aiguebelle, Pointe d'",525,"D'Aiguebelle, Pointe",Pointe,52.525277,-78.712500,33D10,99060,Eeyou Istchee Baie-James,Gouvernement régional,1986-12-18,9bab6c42bbe411d892e2080020a0f4c9,Français,Aiguebelle,Pointe d',
81334,"Linda, Lac",584,"Airvault, Lac",Lac,47.193627,-76.920671,31N02,83902,Lac-Pythonga,Territoire non organisé,1973-01-16,a4d4da23bbe411d892e2080020a0f4c9,Français,Linda,Lac,
84406,"Indien, Lac",626,"Akwan, Lac",Lac,46.456388,-74.091944,31J08,62912,Saint-Guillaume-Nord,Territoire non organisé,1978-08-17,ab43e2e8bbe411d892e2080020a0f4c9,Français,Indien,Lac,
81219,"Poulin, Lac",635,"Alain, Lac",Lac,46.828043,-71.496863,21L14,23027,Québec,Ville,1977-08-08,ab6af2eebbe411d892e2080020a0f4c9,Français,Poulin,Lac,
53648,"Rivière Rocheuse, Troisième lac de la",638,"Alain, Lac",Lac,48.797221,-69.588888,22C13,95902,Lac-au-Brochet,Territoire non organisé,1974-08-02,acfcdd91bbe411d892e2080020a0f4c9,Français,Rivière Rocheuse,Troisième lac de la,
100226,"Grandbois, Petit lac",664,"Alba, Lac",Lac,47.024574,-72.120691,31P01,34135,Rivière-à-Pierre,Municipalité,1981-04-02,b09b8837bbe411d892e2080020a0f4c9,Français,Grandbois,Petit lac,
77294,"Wilson, Lac",690,"Albert, Lac",Lac,46.503611,-73.829999,31I12,62080,Saint-Zénon,Municipalité,1978-08-17,b4260e9dbbe411d892e2080020a0f4c9,Anglais,Wilson,Lac,
61385,"Moïse, Table à",721,"Albert Nord, Sommet",Sommet,48.935383,-66.167263,22B16,04902,Mont-Albert,Territoire non organisé,1990-04-25,b8d231a3bbe411d892e2080020a0f4c9,Français,Moïse,Table à,
726,"Albertville",,,Village,48.324999,-67.361388,22B06,07025,Albertville,Municipalité,1997-12-12,b378e6ea323d475582380926d72bcb42,Français,Albertville,,
757,"Alder, Lac",,,Partie de réservoir,53.623610,-77.290555,33F11,99060,Eeyou Istchee Baie-James,Gouvernement régional,2001-06-05,c40d31b693544908a2c3e4f3d5137c42,Anglais,Alder,Lac,
243425,"Saint-Amand, Deuxième lac",772,"Aldor, Lac",Lac,47.204647,-79.132868,31M03,85020,Béarn,Municipalité,1989-11-16,be3dd328bbe411d892e2080020a0f4c9,Français,Saint-Amand,Deuxième lac,
100225,"Petit Canot, Lac",798,"Alex, Lac",Lac,47.131554,-71.983460,21M04,34904,Linton,Territoire non organisé,1981-04-02,c1bd0eedbbe411d892e2080020a0f4c9,Français,Petit Canot,Lac,
71847,"Smith, Lac à",821,"Alexandre, Lac",Lac,46.264166,-75.553611,31J05,79015,Lac-du-Cerf,Municipalité,1976-06-14,c51d780ebbe411d892e2080020a0f4c9,Anglais,Smith,Lac à,
104409,"Kwekosipi",833,"Alexandrie, Rivière",Rivière,47.184816,-74.304491,31O01,62920,Baie-Atibenne,Territoire non organisé,1981-07-09,c71a8099bbe411d892e2080020a0f4c9,Attikamek,Kwekosipi,,
108371,"Aris Sakahikan",880,"Alice, Lac",Lac,47.079721,-73.536944,31P04,35906,Rivière-de-la-Savane,Territoire non organisé,1981-05-07,cd2fa98dbbe411d892e2080020a0f4c9,Attikamek,Aris Sakahikan,,
62658,"Ti-Foy, Lac",906,"Alizé, Lac de l'",Lac,46.625832,-73.155277,31I11,51065,Saint-Alexis-des-Monts,Municipalité de paroisse,1972-01-11,d1b8db45bbe411d892e2080020a0f4c9,Français,Ti-Foy,Lac,
9477,"Caché, Lac",933,"Allard, Lac",Lac,46.544721,-73.110000,31I11,51065,Saint-Alexis-des-Monts,Municipalité de paroisse,1975-03-06,d53557e9bbe411d892e2080020a0f4c9,Français,Caché,Lac,
70600,"Neuf Milles, Lac",935,"Allard, Lac",Lac,47.341438,-78.813388,31M07,85065,Belleterre,Ville,1975-09-23,d542292bbbe411d892e2080020a0f4c9,Français,Neuf Milles,Lac,
68836,"Croche, Rivière",942,"Allard, Rivière",Rivière,50.365469,-63.583199,12L05,98040,Havre-Saint-Pierre,Municipalité,1976-05-11,d6e41961bbe411d892e2080020a0f4c9,Français,Croche,Rivière,
81343,"Russeltown, Ruisseau",965,"Allen, Ruisseau",Ruisseau,45.082777,-73.763611,31H04,69017,Saint-Chrysostome,Municipalité,1977-08-08,d8d31833bbe411d892e2080020a0f4c9,Anglais,Russeltown,Ruisseau,
100224,"Chaleur, Lac",980,"Alliat, Lac",Lac,47.271649,-71.862213,21M05,34902,Lac-Blanc,Territoire non organisé,1981-04-02,daa1488fbbe411d892e2080020a0f4c9,Français,Chaleur,Lac,
31765,"Jumeau, Lac",984,"Alliés, Lac des",Lac,47.376110,-71.353333,21M06,21904,Lac-Jacques-Cartier,Territoire non organisé,1971-06-01,dc2e5132bbe411d892e2080020a0f4c9,Français,Jumeau,Lac,NA
96950,"Delisle",1013,"Alma",Municipalité,48.549702,-71.653425,22D12,93042,Alma,Ville,2001-04-11,de231c65bbe411d892e2080020a0f4c9,Français,Delisle,,
28126,"Haut, Petit lac d'en",1056,"Alphée, Petit lac",Lac,48.186666,-70.015833,22D01,94205,Petit-Saguenay,Municipalité,1971-10-08,e5192f7abbe411d892e2080020a0f4c9,Français,Haut,Petit lac d'en,
73885,"Vert, Lac",1064,"Alphonse, Lac",Lac,46.761944,-72.997499,31I15,36033,Shawinigan,Ville,1977-02-18,e54631f1bbe411d892e2080020a0f4c9,Français,Vert,Lac,
104625,"Amikotcitc",1068,"Alphonse, Lac",Lac,48.745405,-75.506333,32B12,90012,La Tuque,Ville,1981-07-09,e6d95515bbe411d892e2080020a0f4c9,Attikamek,Amikotcitc,,
184422,"Alquier, Pointe d'",1073,"D'Alquier, Pointe",Pointe,52.557500,-78.763611,33D10,99060,Eeyou Istchee Baie-James,Gouvernement régional,1986-12-18,eeb02b1abbe411d892e2080020a0f4c9,Français,Alquier,Pointe d',
79130,"Altona, Lac",1093,"Altura, Lac",Lac,49.072777,-79.434444,32E03,99060,Eeyou Istchee Baie-James,Gouvernement régional,1978-08-17,f0fdebb9bbe411d892e2080020a0f4c9,Inconnu,Altona,Lac,
54932,"Roy, Lac",1099,"Alverna, Lac",Lac,45.998333,-74.215833,31G16,78005,Val-Morin,Municipalité,1970-02-27,f2ed389ebbe411d892e2080020a0f4c9,Français,Roy,Lac,
80959,"Lonnguist, Lac",1119,"Amanites, Lac des",Lac,47.108333,-72.378610,31P01,34906,Lac-Lapeyrère,Territoire non organisé,1977-08-08,f54c374bbbe411d892e2080020a0f4c9,Inconnu,Lonnguist,Lac,
22140,"Fee, Lac",1160,"Amende, Lac de l'",Lac,47.251666,-72.031557,31P08,34904,Linton,Territoire non organisé,1971-06-01,fb61fc80bbe411d892e2080020a0f4c9,Anglais,Fee,Lac,
1232,"Amos-Est",1229,"Amos",Municipalité,48.564766,-78.112750,32D09,88057,Amos,Ville,1987-05-11,049ccf7dbbe511d892e2080020a0f4c9,Français,Amos-Est,,
56507,"Saint-Félix-de-Dalquier",1229,"Amos",Municipalité,48.683333,-78.116666,32D09,88057,Amos,Ville,2025-03-13,049ccf7dbbe511d892e2080020a0f4c9,Français,Saint-Félix-de-Dalquier,,H
55737,"Saint-Benoît-Joseph-Labre",1250,"Amqui",Municipalité de paroisse,48.462375,-67.433232,22B06,07047,Amqui,Ville,1991-04-12,0691257abbe511d892e2080020a0f4c9,Français,Saint-Benoît-Joseph-Labre,,
70540,"Moulin, Lac du",1338,"Andonias, Lac",Lac,48.695277,-72.861111,32A10,91902,Lac-Ashuapmushuan,Territoire non organisé,1975-09-23,125f74abbbe511d892e2080020a0f4c9,Français,Moulin,Lac du,
25702,"Godbout, Lac",1349,"André, Lac",Lac,46.689166,-70.744999,21L10,19045,Saint-Nérée-de-Bellechasse,Municipalité,1975-01-21,14657de5bbe511d892e2080020a0f4c9,Français,Godbout,Lac,
77314,"Cœur, Lac en",1350,"André, Lac",Lac,46.831943,-73.969166,31I13,62906,Baie-de-la-Bouteille,Territoire non organisé,1978-08-17,1474e736bbe511d892e2080020a0f4c9,Français,Cœur,Lac en,
5126,"Berenson, Lac",1359,"André, Lac",Lac,49.371666,-69.728610,22F05,95902,Lac-au-Brochet,Territoire non organisé,1974-08-02,14db713dbbe511d892e2080020a0f4c9,Anglais,Berenson,Lac,
1382,"Andrew, Ruisseau",1366,"André, Ruisseau",Ruisseau,45.734444,-74.681666,31G10,76052,Grenville-sur-la-Rouge,Municipalité,1970-03-04,16afbc14bbe511d892e2080020a0f4c9,Anglais,Andrew,Ruisseau,
31584,"Jos-Vallières, Île à",1375,"André-Nadeau, Île à",Île,46.633610,-71.234444,21L11,26070,Saint-Lambert-de-Lauzon,Municipalité,1974-03-28,16f7737abbe511d892e2080020a0f4c9,Français,Jos-Vallières,Île à,
51158,"Prévost, Lac",1400,"Anémones, Lac des",Lac,47.528888,-71.246944,21M11,21904,Lac-Jacques-Cartier,Territoire non organisé,1971-06-01,1aeb6a0cbbe511d892e2080020a0f4c9,Français,Prévost,Lac,
20962,"English Head",1449,"Anglais, Cap aux",Cap,49.902222,-64.488610,22H16,98020,L'Île-d'Anticosti,Municipalité,1974-09-12,2147fb40bbe511d892e2080020a0f4c9,Anglais,English Head,,
1003,"Allumette, Lac à l'",1479,"Anguille, Lac à l'",Lac,46.474166,-73.069443,31I06,51065,Saint-Alexis-des-Monts,Municipalité de paroisse,1975-03-06,26ed7268bbe511d892e2080020a0f4c9,Français,Allumette,Lac à l',
1007,"Allumettes, Lac des",1479,"Anguille, Lac à l'",Lac,46.474166,-73.069443,31I06,51065,Saint-Alexis-des-Monts,Municipalité de paroisse,1975-03-06,26ed7268bbe511d892e2080020a0f4c9,Français,Allumettes,Lac des,
92331,"Aqueduc, Lac de l'",1483,"Anguille, Lac à l'",Lac,48.430554,-68.415833,22C08,10030,Saint-Anaclet-de-Lessard,Municipalité de paroisse,1979-10-29,27062a8abbe511d892e2080020a0f4c9,Français,Aqueduc,Lac de l',
77610,"Sans Bout, Baie",1500,"Anicet, Lac",Lac,46.671666,-74.130832,31J09,62912,Saint-Guillaume-Nord,Territoire non organisé,1978-08-17,292d2947bbe511d892e2080020a0f4c9,Français,Sans Bout,Baie,
66679,"Washington, Lac",1537,"Anne, Lac",Lac,46.396944,-73.522499,31I05,62075,Saint-Damien,Municipalité de paroisse,1975-03-06,2d978863bbe511d892e2080020a0f4c9,Anglais,Washington,Lac,
9354,"CN, Lac du",1550,"Anne-Marie, Lac",Lac,49.177777,-73.672777,32H04,91902,Lac-Ashuapmushuan,Territoire non organisé,1971-06-18,2fa1622dbbe511d892e2080020a0f4c9,Français,CN,Lac du,
41297,"Mine, Lac la",1573,"Anodin, Lac",Lac,46.545555,-74.111944,31J09,62912,Saint-Guillaume-Nord,Territoire non organisé,1972-01-11,33b563e2bbe511d892e2080020a0f4c9,Français,Mine,Lac la,
1577,"Anomalie, Lac de l'",1583,"Anorak, Lac",Lac,51.586110,-73.007222,32P11,99914,Toponyme à venir,Territoire non organisé,1969-05-14,3581e689bbe511d892e2080020a0f4c9,Français,Anomalie,Lac de l',
1466,"Anglo, Lac",1585,"Anouk, Lac",Lac,47.646280,-71.415763,21M11,21904,Lac-Jacques-Cartier,Territoire non organisé,1971-06-01,359c4c5bbbe511d892e2080020a0f4c9,Anglais,Anglo,Lac,
15674,"Cove, La",1590,"Anse, L'",Anse,48.501111,-64.176666,22A09,02005,Percé,Ville,1975-01-21,35d66f2fbbe511d892e2080020a0f4c9,Français,Cove,La,
4365,"Beaupré, Lac",1684,"Antoine, Lac",Lac,46.252222,-73.667221,31I05,62020,Sainte-Béatrix,Municipalité,1975-03-06,4b383878bbe511d892e2080020a0f4c9,Français,Beaupré,Lac,
1722,"Anty, Anse à",434662,"Conti, Anse de",Anse,47.164166,-70.434166,21M01,18070,Saint-Antoine-de-l'Isle-aux-Grues,Municipalité de paroisse,2018-06-04,4f8599b7bbe511d892e2080020a0f4c9,Inconnu,Anty,Anse à,NA
24815,"Gauthier, Lac",1748,"Apica, Lac",Lac,47.971579,-71.438171,21M14,93904,Lac-Moncouche,Territoire non organisé,1971-06-01,53678eebbbe511d892e2080020a0f4c9,Français,Gauthier,Lac,
9751,"Call, Lac",1771,"Appel, Lac de l'",Lac,47.423785,-72.297152,31P08,90012,La Tuque,Ville,1971-06-01,576b62fbbbe511d892e2080020a0f4c9,Anglais,Call,Lac,
84409,"Tennis-Beaudoin, Lac à",1825,"Aralies, Lac des",Lac,46.448610,-74.081943,31J08,62912,Saint-Guillaume-Nord,Territoire non organisé,1978-08-17,60d0a15bbbe511d892e2080020a0f4c9,Français,Tennis-Beaudoin,Lac à,
9073,"Budworm, Lac",1828,"Aram, Lac",Lac,47.314463,-72.478546,31P08,34906,Lac-Lapeyrère,Territoire non organisé,1971-06-01,6117474ebbe511d892e2080020a0f4c9,Anglais,Budworm,Lac,
44274,"Noël, Lac à",1837,"Arbout, Lac",Lac,46.638610,-73.357777,31I11,51065,Saint-Alexis-des-Monts,Municipalité de paroisse,1972-01-11,6319a705bbe511d892e2080020a0f4c9,Français,Noël,Lac à,
48991,"Pierre, Lac",1864,"Archambault, Lac",Lac,47.414608,-71.262311,21M06,21904,Lac-Jacques-Cartier,Territoire non organisé,1971-06-01,6791739ebbe511d892e2080020a0f4c9,Français,Pierre,Lac,
18894,"Doré, Lac",1921,"Arès, Lac",Lac,49.493055,-74.170277,32G08,91902,Lac-Ashuapmushuan,Territoire non organisé,1971-06-18,7b27567fbbe511d892e2080020a0f4c9,Français,Doré,Lac,
184423,"Argenson, Pointe d'",1939,"D'Argenson, Pointe",Pointe,61.084721,-70.393333,25E01,99902,Rivière-Koksoak,Territoire non organisé,1986-12-18,7d4c325fbbe511d892e2080020a0f4c9,Français,Argenson,Pointe d',
1970,"Argenteuil",,,Division de recensement,45.800000,-74.466666,31G16,77060,Wentworth-Nord,Municipalité,1994-08-19,c9752b0b0fa0435b894bc7f6723cc9dd,Français,Argenteuil,,
1157,"Amélion, Lac",2010,"Arlelion, Lac",Lac,48.821804,-77.886952,32C13,88065,Saint-Dominique-du-Rosaire,Municipalité,1970-10-16,873ff525bbe511d892e2080020a0f4c9,Français,Amélion,Lac,
27825,"Hamelin, Lac",2010,"Arlelion, Lac",Lac,48.821804,-77.886952,32C13,88065,Saint-Dominique-du-Rosaire,Municipalité,1970-10-16,873ff525bbe511d892e2080020a0f4c9,Français,Hamelin,Lac,
806,"Alex, Lac",2016,"Arlette, Lac",Lac,48.653775,-75.871974,32B12,89040,Senneterre,Ville,1973-11-20,88fc994bbbe511d892e2080020a0f4c9,Indifférencié,Alex,Lac,
72121,"Truite, Lac de la",2063,"Armstrong, Lac",Lac,46.086944,-74.736666,31J02,78070,Amherst,Municipalité de canton,1975-12-02,8eab3743bbe511d892e2080020a0f4c9,Français,Truite,Lac de la,
318986,"Argnatalik, Lac",2080,"Arnatalik, Lac",Lac,58.463055,-69.760000,24K05,99902,Rivière-Koksoak,Territoire non organisé,1996-03-29,908a578fbbe511d892e2080020a0f4c9,Inuktitut,Argnatalik,Lac,
11527,"Catherine, Lac",2084,"Arnaudeau, Lac",Lac,47.514641,-71.430741,21M11,21904,Lac-Jacques-Cartier,Territoire non organisé,1971-06-01,92232002bbe511d892e2080020a0f4c9,Français,Catherine,Lac,
32054,"Kapisiliqanngituq, Lac",2089,"Arnoix, Lac",Lac,58.581110,-77.351388,34K11,99904,Baie-d'Hudson,Territoire non organisé,1972-02-12,92468686bbe511d892e2080020a0f4c9,Inuktitut,Kapisiliqanngituq,Lac,
77654,"Grondin, Lac",2168,"Arsène, Lac",Lac,46.841666,-74.089444,31J16,62908,Lac-Matawin,Territoire non organisé,1978-08-17,9b4a1cefbbe511d892e2080020a0f4c9,Français,Grondin,Lac,
100223,"Pierrot, Petit lac",2178,"Artagnan, Lac",Lac,47.036944,-71.932221,21M04,34128,Saint-Raymond,Ville,1981-04-02,9cf89047bbe511d892e2080020a0f4c9,Français,Pierrot,Petit lac,
2187,"Arthabaska",,,Division de recensement,46.000000,-72.000000,31I01,39077,Warwick,Ville,1994-08-19,b0e608c605d64e268126cc5f56ef150d,Cri,Arthabaska,,
337881,"Prison, Île de la",2189,"Arthur, Île",Île,45.283888,-74.172221,31G08,71040,Coteau-du-Lac,Ville,1997-08-14,9eadba60bbe511d892e2080020a0f4c9,Français,Prison,Île de la,
73877,"Orignal, Lac",2193,"Arthur, Lac",Lac,46.780554,-72.986944,31I15,36033,Shawinigan,Ville,1977-02-18,9ec75ce4bbe511d892e2080020a0f4c9,Français,Orignal,Lac,
59571,"Shugy, Lac",2255,"Asaki, Lac",Lac,47.178504,-76.718160,31N02,83902,Lac-Pythonga,Territoire non organisé,1973-01-16,a79feba8bbe511d892e2080020a0f4c9,Algonquin,Shugy,Lac,
2261,"Asbestos",441990,"Val-des-Sources",Ville,45.777407,-71.938444,21E13,40043,Val-des-Sources,Ville,2021-03-18,a7b3258bbbe511d892e2080020a0f4c9,Anglais,Asbestos,,NA
63779,"Trois-Lacs",441990,"Val-des-Sources",Municipalité,45.777407,-71.938444,21E13,40043,Val-des-Sources,Ville,2000-01-20,a7b3258bbbe511d892e2080020a0f4c9,Français,Trois-Lacs,,
100222,"Josée, Lac",2280,"Ascros, Lac",Lac,47.167077,-71.907341,21M04,34904,Linton,Territoire non organisé,1981-04-02,a969fd53bbe511d892e2080020a0f4c9,Français,Josée,Lac,
80619,"Bullpout, Lac",2314,"Aspect, Lac",Lac,45.718610,-75.504444,31G12,80087,Notre-Dame-de-la-Salette,Municipalité,1970-03-06,ab546843bbe511d892e2080020a0f4c9,Anglais,Bullpout,Lac,
40104,"McDuff, Île",2316,"Asperges, Île aux",Île,45.696944,-73.474166,31H11,59020,Varennes,Ville,1975-01-21,ab6187a5bbe511d892e2080020a0f4c9,Anglais,McDuff,Île,
2311,"Askyshoanipi, Lac",2322,"Asquiche, Lac",Lac,50.449444,-66.886388,22J07,97904,Lac-Walker,Territoire non organisé,1975-04-08,acff0b0abbe511d892e2080020a0f4c9,Innu,Askyshoanipi,Lac,
277051,"T, Lac",2383,"Atalante, Lac",Lac,47.066341,-75.169991,31O03,79922,Lac-Douaire,Territoire non organisé,1992-04-24,b40aa1f5bbe511d892e2080020a0f4c9,Français,T,Lac,
108355,"Tenis Sakahikan",2391,"Atenis, Lac",Lac,47.234933,-73.742438,31P04,35906,Rivière-de-la-Savane,Territoire non organisé,1981-05-07,b42c81dabbe511d892e2080020a0f4c9,Langue amérindienne indéterminée,Tenis Sakahikan,,
227761,"Tibia, Lac",2418,"Atisocagamac, Lac",Lac,49.056111,-69.725554,22F04,95902,Lac-au-Brochet,Territoire non organisé,1993-03-26,b5edb9e4bbe511d892e2080020a0f4c9,Français,Tibia,Lac,
85019,"Mistinikw, Île",2421,"Atkinson, Île",Île,56.144166,-74.513611,34B02,99904,Baie-d'Hudson,Territoire non organisé,1978-08-17,b5f497b5bbe511d892e2080020a0f4c9,Cri,Mistinikw,Île,
23950,"Frères, Pointe des",2422,"Atkinson, Pointe",Pointe,46.763333,-71.236388,21L14,25213,Lévis,Ville,1974-03-28,b5fad946bbe511d892e2080020a0f4c9,Français,Frères,Pointe des,
81617,"Tente à Coton, Lac",2450,"Attelles, Lac des",Lac,47.320799,-73.266988,31P06,90012,La Tuque,Ville,1977-08-08,d3c77a0fbbe511d892e2080020a0f4c9,Français,Tente à Coton,Lac,
100221,"Mal de Tête, Lac",2477,"Aube, Lac",Lac,47.197410,-71.830182,21M04,34902,Lac-Blanc,Territoire non organisé,1981-04-02,d6895940bbe511d892e2080020a0f4c9,Français,Mal de Tête,Lac,
49590,"Pipe, Lac la",2490,"Aubert, Lac",Lac,47.260555,-71.463888,21M06,22035,Stoneham-et-Tewkesbury,Municipalité de cantons unis,1971-06-01,d89dba5abbe511d892e2080020a0f4c9,Français,Pipe,Lac la,
49511,"Pins, Pointe aux",2510,"Aubin, Pointe",Pointe,46.688055,-71.507500,21L12,33095,Saint-Antoine-de-Tilly,Municipalité,1988-03-09,dc99791abbe511d892e2080020a0f4c9,Français,Pins,Pointe aux,
81852,"D'Haudebourg",2555,"D'Audhebourg",Canton,51.083333,-59.000000,12O03,98014,Gros-Mécatina,Municipalité,1978-08-17,e397545ebbe511d892e2080020a0f4c9,Français,D'Haudebourg,,
59529,"Ship, Lac",2579,"Auger, Lac",Lac,46.522777,-74.298888,31J09,62910,Lac-Legendre,Territoire non organisé,1972-01-11,e7b36c63bbe511d892e2080020a0f4c9,Anglais,Ship,Lac,
33467,"Lefoley, Plage",2587,"Mauger, Plage",Plage,48.502769,-64.174518,22A09,02005,Percé,Ville,1975-01-21,e833bffabbe511d892e2080020a0f4c9,Inconnu,Lefoley,Plage,
54835,"Rourke, Lac",2610,"Augustin, Lac",Lac,50.056388,-78.494166,32L01,99060,Eeyou Istchee Baie-James,Gouvernement régional,1970-07-15,ec6e356fbbe511d892e2080020a0f4c9,Français,Rourke,Lac,
118025,"Auyuittuq, Pointe",2614,"Aujuittuq, Pointe",Pointe,59.826666,-69.581388,24N13,99902,Rivière-Koksoak,Territoire non organisé,1989-09-06,ee333e03bbe511d892e2080020a0f4c9,Inuktitut,Auyuittuq,Pointe,
24615,"Garon, Lac",2638,"Aulnes, Lac des",Lac,46.366111,-74.186388,31J08,62060,Saint-Donat,Municipalité,1974-01-22,f28a3c29bbe511d892e2080020a0f4c9,Français,Garon,Lac,
30258,"Isidore, Lac",2638,"Aulnes, Lac des",Lac,46.366111,-74.186388,31J08,62060,Saint-Donat,Municipalité,1974-01-22,f28a3c29bbe511d892e2080020a0f4c9,Français,Isidore,Lac,
66842,"Weedy, Lac",2638,"Aulnes, Lac des",Lac,46.366111,-74.186388,31J08,62060,Saint-Donat,Municipalité,1974-01-22,f28a3c29bbe511d892e2080020a0f4c9,Anglais,Weedy,Lac,
78854,"Aulnaies, Rivière des",2644,"Aulnes, Rivière aux",Rivière,48.880779,-72.567349,32A15,92040,Normandin,Ville,1978-08-17,f2d01ecebbe511d892e2080020a0f4c9,Français,Aulnaies,Rivière des,
365717,"Alder, Ruisseau",2648,"Aulnes, Ruisseau des",Section de cours d'eau,46.042499,-75.353888,31J03,80135,Duhamel,Municipalité,2000-11-09,f3049c51bbe511d892e2080020a0f4c9,Anglais,Alder,Ruisseau,
60344,"Soumis, Lac",2701,"Aurore, Lac de l'",Lac,46.463888,-73.605555,31I05,62080,Saint-Zénon,Municipalité,1975-03-06,fa727779bbe511d892e2080020a0f4c9,Français,Soumis,Lac,
92812,"East Bolton",2711,"Austin",Municipalité,45.186560,-72.280166,31H01,45085,Austin,Municipalité,1968-12-05,fc2dbc11bbe511d892e2080020a0f4c9,Anglais,East Bolton,,
184433,"Avaugour, Pointe d'",2754,"D'Avaugour, Pointe",Pointe,61.067777,-70.424999,25E01,99902,Rivière-Koksoak,Territoire non organisé,1986-12-18,01b12b56bbe611d892e2080020a0f4c9,Français,Avaugour,Pointe d',
1266,"Anaconda, Ruisseau",2782,"Aviron Brisé, Ruisseau de l'",Ruisseau,52.100833,-75.541944,33B04,99060,Eeyou Istchee Baie-James,Gouvernement régional,1973-03-21,0550c05fbbe611d892e2080020a0f4c9,Autre,Anaconda,Ruisseau,
100220,"Tour, Petit lac de la",2831,"Aydat, Lac",Lac,47.166943,-71.691666,21M04,22025,Saint-Gabriel-de-Valcartier,Municipalité,1981-04-02,0ab006d1bbe611d892e2080020a0f4c9,Français,Tour,Petit lac de la,
357356,"Noir, Lac",2841,"Aylmer, Lac",Lac,45.911666,-71.370832,21E14,31008,Beaulac-Garthby,Municipalité,1999-06-22,0c5ca568bbe611d892e2080020a0f4c9,Français,Noir,Lac,
17882,"Deschênes, Lac",2854,"Ayotte, Lac",Lac,46.224999,-73.604444,31I04,62020,Sainte-Béatrix,Municipalité,1973-07-18,0e0aa390bbe611d892e2080020a0f4c9,Français,Deschênes,Lac,
79035,"Setback, Lac",2857,"Ayotte, Lac",Lac,48.076110,-74.100833,32B01,90012,La Tuque,Ville,1978-08-17,0e20eab3bbe611d892e2080020a0f4c9,Anglais,Setback,Lac,
67441,"Wood, Rivière",2945,"Bacon, Ruisseau",Rivière,49.535555,-68.671943,22F10,96902,Rivière-aux-Outardes,Territoire non organisé,1974-08-02,18d69df5bbe611d892e2080020a0f4c9,Anglais,Wood,Rivière,
104514,"Kinoce Ponapananicicik",2956,"Badajoz, Lac",Lac,47.321185,-74.584688,31O07,79910,Lac-Bazinet,Territoire non organisé,1981-07-09,1a82a04cbbe611d892e2080020a0f4c9,Langue amérindienne indéterminée,Kinoce Ponapananicicik,,
53465,"Rivard, Lac",2963,"Badeaux, Lac",Lac,47.003611,-73.500277,31P04,35906,Rivière-de-la-Savane,Territoire non organisé,1972-01-11,1aa45921bbe611d892e2080020a0f4c9,Français,Rivard,Lac,
23851,"Fray, Lac",2974,"Bagarre, Lac de la",Lac,48.937305,-74.025396,32B16,91902,Lac-Ashuapmushuan,Territoire non organisé,1972-03-28,1c64f4ebbbe611d892e2080020a0f4c9,Anglais,Fray,Lac,
2982,"Bagot",,,Division de recensement,45.650000,-72.666666,31H10,48038,Upton,Municipalité,1994-08-19,4c46d5c886cf4f3698ccd0d22f7cda5a,Anglais,Bagot,,
85200,"Écluse, Lac de l'",3013,"Baie, Lac de la",Lac,49.746388,-67.853055,22G12,96902,Rivière-aux-Outardes,Territoire non organisé,1978-08-17,219cb628bbe611d892e2080020a0f4c9,Français,Écluse,Lac de l',
107055,"Wekwapeak",3014,"Baie, Lac la",Lac,47.752933,-74.124516,31O16,90012,La Tuque,Ville,1981-03-05,21a2f7b9bbe611d892e2080020a0f4c9,Langue amérindienne indéterminée,Wekwapeak,,
69807,"Jean, Lac",3016,"Baie, Petit lac de la",Lac,47.814166,-70.587777,21M15,16902,Lac-Pikauba,Territoire non organisé,1976-02-25,21b4aafbbbe611d892e2080020a0f4c9,Français,Jean,Lac,
135526,"Hauterive",3026,"Baie-Comeau",Ville,49.220927,-68.149305,22F01,96020,Baie-Comeau,Ville,1986-01-09,23660483bbe611d892e2080020a0f4c9,Français,Hauterive,,
67934,"Baie-de-la-Terre",3043,"Baie-des-Ha! Ha!",Hameau,50.927221,-58.975832,12J15,98014,Gros-Mécatina,Municipalité,1976-02-25,23a15fdabbe611d892e2080020a0f4c9,Français,Baie-de-la-Terre,,
3022,"Baie, La",3047,"Mines, Baie des",Milieu humide,46.371388,-72.716666,31I07,51090,Saint-Étienne-des-Grès,Municipalité de paroisse,1989-03-29,23a7a16bbbe611d892e2080020a0f4c9,Français,Baie,La,
3052,"Baie des Plongeux, Caye de la",3050,"Baie des Plongeurs, Caye de la",Rocher,48.763333,-68.988610,22C15,95045,Forestville,Ville,1974-08-02,25334a7dbbe611d892e2080020a0f4c9,Français,Baie des Plongeux,Caye de la,
3053,"Baie des Plongeux, Île de la",3051,"Baie des Plongeurs, Île de la",Île,48.769999,-68.984999,22C15,95045,Forestville,Ville,1974-08-02,253964febbe611d892e2080020a0f4c9,Français,Baie des Plongeux,Île de la,
3114,"Baie-Saint-Ludger",,,Hameau,49.091110,-68.321388,22F01,96030,Pointe-aux-Outardes,Municipalité de village,2022-09-07,2a991fa1bbe611d892e2080020a0f4c9,Français,Baie-Saint-Ludger,,H
68042,"Belle Plage, Lac",3133,"Baillairgé, Lac",Lac,48.702019,-73.982404,32A12,91902,Lac-Ashuapmushuan,Territoire non organisé,1975-09-23,2c6b208cbbe611d892e2080020a0f4c9,Français,Belle Plage,Lac,
78997,"Caroline, Lac",3158,"Bain, Lac du",Lac,48.067366,-74.295024,32B01,90012,La Tuque,Ville,1978-08-17,2ff2e7d1bbe611d892e2080020a0f4c9,Français,Caroline,Lac,
66977,"Whale, Chenal",3212,"Baleine, Chenal à la",Chenal,51.375554,-57.691388,12P05,98010,Bonne-Espérance,Municipalité,1971-06-18,35774278bbe611d892e2080020a0f4c9,Anglais,Whale,Chenal,
22363,"Fesses, Île aux",3294,"Banane, Île",Île,46.534166,-72.748333,31I10,36033,Shawinigan,Ville,1975-03-06,7a565561bbe611d892e2080020a0f4c9,Français,Fesses,Île aux,
71783,"Séminaire, Langue de terre du",3306,"Banc de Sable, Le",Banc de sable,47.065327,-70.763283,21M02,21020,Saint-Joachim,Municipalité de paroisse,1976-06-14,7b5304ebbbe611d892e2080020a0f4c9,Français,Séminaire,Langue de terre du,
13787,"Clair, Lac",3327,"Bannok, Lac du",Lac,49.444721,-74.087777,32G08,91902,Lac-Ashuapmushuan,Territoire non organisé,1971-06-18,7fe70c0cbbe611d892e2080020a0f4c9,Français,Clair,Lac,
79107,"Île, Lac à l'",3366,"Bar, Lac",Lac,48.061111,-76.580277,32C02,89040,Senneterre,Ville,1978-08-17,86b4fdadbbe611d892e2080020a0f4c9,Français,Île,Lac à l',NA
84600,"Adelphus-Martinet, Étang à",3371,"Barachois, Le",Étang,47.416388,-61.878332,11N05,01023,Les Îles-de-la-Madeleine,Municipalité,1989-09-06,8715bb52bbe611d892e2080020a0f4c9,Français,Adelphus-Martinet,Étang à,
72355,"Barachois-de-Malbaie",3374,"Barachois",Village,48.618054,-64.286666,22A09,02005,Percé,Ville,1976-12-24,88c6c6b5bbe611d892e2080020a0f4c9,Français,Barachois-de-Malbaie,,
3420,"Barbot, Lac",3422,"Barbotte, Lac",Lac,46.113888,-74.460555,31J01,78047,Mont-Blanc,Municipalité,1974-01-22,8fa002fabbe611d892e2080020a0f4c9,Français,Barbot,Lac,
5768,"Binette, Lac",3422,"Barbotte, Lac",Lac,46.113888,-74.460555,31J01,78047,Mont-Blanc,Municipalité,1974-01-22,8fa002fabbe611d892e2080020a0f4c9,Français,Binette,Lac,
104158,"Moulin à Donat-Damphousse, Île du",3483,"Baribeau, Île",Île,46.454722,-73.009166,31I06,51060,Saint-Paulin,Municipalité,1981-07-09,989148dabbe611d892e2080020a0f4c9,Français,Moulin à Donat-Damphousse,Île du,
37933,"Madrier, Lac",3485,"Baribeau, Lac",Lac,46.498888,-73.041666,31I06,51075,Saint-Élie-de-Caxton,Municipalité,1972-01-11,9a2cd06cbbe611d892e2080020a0f4c9,Français,Madrier,Lac,
30810,"Jaune, Lac",3495,"Baril, Lac",Lac,46.412500,-73.681666,31I05,62080,Saint-Zénon,Municipalité,1975-03-06,9aad9934bbe611d892e2080020a0f4c9,Français,Jaune,Lac,
224150,"Drum, Lac",3499,"Baril, Lac du",Lac,49.502500,-74.263888,32G09,91902,Lac-Ashuapmushuan,Territoire non organisé,1988-11-01,9c688fa8bbe611d892e2080020a0f4c9,Français,Drum,Lac,
4819,"Belleau, Lac",3541,"Barnard, Lac",Lac,46.654166,-73.066666,31I11,51070,Saint-Mathieu-du-Parc,Municipalité,1972-01-11,a0cc861ebbe611d892e2080020a0f4c9,Français,Belleau,Lac,
16790,"Dam, Lac",3583,"Barrage, Lac du",Lac,49.567221,-62.996388,12E10,98020,L'Île-d'Anticosti,Municipalité,1974-09-12,a5ca248bbbe611d892e2080020a0f4c9,Anglais,Dam,Lac,
4492,"Beaver Dam, Lac",3586,"Barrage de Castor, Lac du",Lac,47.379160,-71.828057,21M05,22902,Lac-Croche,Territoire non organisé,1971-06-01,a76a18edbbe611d892e2080020a0f4c9,Anglais,Beaver Dam,Lac,
104155,"Lac des Pins Rouges, Décharge du",3660,"Barrière, Ruisseau de la",Ruisseau,46.432777,-73.134444,31I06,51065,Saint-Alexis-des-Monts,Municipalité de paroisse,1981-07-09,b0a58831bbe611d892e2080020a0f4c9,Français,Lac des Pins Rouges,Décharge du,
66604,"Wapishish, Lac",3664,"Barrin, Lac",Lac,48.889444,-70.594444,22D15,94930,Mont-Valin,Territoire non organisé,1968-12-05,b25979c5bbe611d892e2080020a0f4c9,Langue amérindienne indéterminée,Wapishish,Lac,
61256,"Swamp, Lac",3735,"Bas-Fond, Lac du",Lac,47.241388,-72.100277,31P01,34904,Linton,Territoire non organisé,1971-06-18,bb8cf9cbbbe611d892e2080020a0f4c9,Anglais,Swamp,Lac,
79183,"Canot, Lac",3748,"Basile, Lac à",Lac,49.245555,-72.658333,32H02,92904,Rivière-Mistassini,Territoire non organisé,1978-08-17,bbca29e3bbe611d892e2080020a0f4c9,Langue amérindienne indéterminée,Canot,Lac,
40590,"Mercier, Réservoir",3764,"Baskatong, Réservoir",Réservoir,46.801388,-75.833610,31J13,83095,Grand-Remous,Municipalité,1986-11-06,bd819debbbe611d892e2080020a0f4c9,Français,Mercier,Réservoir,
301785,"Bassin, Baie du",3825,"Bassin, Le",Lagune,47.229166,-61.883333,11N04,01023,Les Îles-de-la-Madeleine,Municipalité,1995-02-23,c2f72b7fbbe611d892e2080020a0f4c9,Français,Bassin,Baie du,
85074,"Petite Baie, La",3828,"Bassin, Lac du",Étang,47.224999,-61.922777,11N04,01023,Les Îles-de-la-Madeleine,Municipalité,1978-08-17,c487dca2bbe611d892e2080020a0f4c9,Français,Petite Baie,La,
60222,"Solomon",3832,"Bassin",Village,47.222777,-61.937221,11N04,01023,Les Îles-de-la-Madeleine,Municipalité,1988-03-09,c4a7e7c6bbe611d892e2080020a0f4c9,Anglais,Solomon,,
64168,"Truite, Lac la",3853,"Bastien, Lac",Lac,46.549721,-73.891110,31I12,62080,Saint-Zénon,Municipalité,1972-01-11,c6a4c945bbe611d892e2080020a0f4c9,Français,Truite,Lac la,
4129,"Beat, Lac",3916,"Battue, Lac de la",Lac,47.429524,-72.338508,31P08,90012,La Tuque,Ville,1971-06-01,cf893eeabbe611d892e2080020a0f4c9,Français,Beat,Lac,
72222,"Vert, Lac",3923,"Baubert, Lac",Lac,48.338055,-72.266943,32A08,91015,Saint-François-de-Sales,Municipalité,1976-09-22,d127acafbbe611d892e2080020a0f4c9,Français,Vert,Lac,
3928,"Baude, Barrage",,,Barrage,47.088055,-73.287221,31P03,35904,Lac-Normand,Territoire non organisé,2004-07-13,d15f1064bbe611d892e2080020a0f4c9,Français,Baude,Barrage,
59435,"Shed, Lac",3958,"Baugy, Lac",Lac,46.628054,-74.084721,31J09,62912,Saint-Guillaume-Nord,Territoire non organisé,1972-01-11,d4d858b6bbe611d892e2080020a0f4c9,Anglais,Shed,Lac,
77613,"Shed, Troisième lac de la",3958,"Baugy, Lac",Lac,46.628054,-74.084721,31J09,62912,Saint-Guillaume-Nord,Territoire non organisé,1978-08-17,d4d858b6bbe611d892e2080020a0f4c9,Français,Shed,Troisième lac de la,
3277,"Balsam, Lac",3971,"Baume, Lac du",Lac,48.855000,-69.858611,22C13,95902,Lac-au-Brochet,Territoire non organisé,1971-10-08,d5029d0cbbe611d892e2080020a0f4c9,Anglais,Balsam,Lac,
100218,"Lirette, Lac",4010,"Bayeul, Lac",Lac,47.262911,-71.739916,21M05,34902,Lac-Blanc,Territoire non organisé,1981-04-02,d8a7d764bbe611d892e2080020a0f4c9,Français,Lirette,Lac,
104597,"Kiackonapiskok",4039,"Bazinet, Lac",Lac,47.444299,-74.760091,31O07,79910,Lac-Bazinet,Territoire non organisé,1981-07-09,dc8782abbbe611d892e2080020a0f4c9,Langue amérindienne indéterminée,Kiackonapiskok,,
81684,"Amer, Anse",4049,"Beacon, Baie",Baie,49.558055,-62.473054,12E09,98020,L'Île-d'Anticosti,Municipalité,1974-09-12,de436384bbe611d892e2080020a0f4c9,Français,Amer,Anse,
81685,"Amers, Baie de l'",4049,"Beacon, Baie",Baie,49.558055,-62.473054,12E09,98020,L'Île-d'Anticosti,Municipalité,1974-09-12,de436384bbe611d892e2080020a0f4c9,Français,Amers,Baie de l',
81691,"Bear, Baie",4049,"Beacon, Baie",Baie,49.558055,-62.473054,12E09,98020,L'Île-d'Anticosti,Municipalité,1974-09-12,de436384bbe611d892e2080020a0f4c9,Anglais,Bear,Baie,
100217,"Arthur, Lac",4119,"Béard, Lac",Lac,47.231735,-71.775427,21M04,34902,Lac-Blanc,Territoire non organisé,1981-04-02,e01c9061bbe611d892e2080020a0f4c9,Indifférencié,Arthur,Lac,
4137,"Beattyville",,,Bureau de poste,48.908888,-77.115555,32C14,88902,Lac-Despinassy,Territoire non organisé,1996-12-13,a7fbe0baaba842e994a50486930a7364,Hybride,Beattyville,,
27870,"Handsome, Lac",4138,"Beau, Lac",Lac,46.116111,-74.123888,31J01,78802,Doncaster,Réserve indienne,1969-01-24,e1d8984abbe611d892e2080020a0f4c9,Anglais,Handsome,Lac,
49541,"Pinsonnault, Île",4156,"Beaubien, Île",Île,45.176999,-74.270479,31G01,69065,Sainte-Barbe,Municipalité,1970-06-12,e387cef1bbe611d892e2080020a0f4c9,Français,Pinsonnault,Île,
4162,"Beauce",,,Division de recensement,46.000000,-70.750000,21L02,29073,Saint-Georges,Ville,1994-08-19,3ca1487ed555481a91bc9e5de966e71b,Français,Beauce,,
44282,"Nœud, Lac",4171,"Beauchamp, Lac",Lac,46.006111,-74.365277,31J01,77065,Saint-Adolphe-d'Howard,Municipalité,1974-01-22,e55b7d8dbbe611d892e2080020a0f4c9,Français,Nœud,Lac,
65493,"Verona, Lac",4171,"Beauchamp, Lac",Lac,46.006111,-74.365277,31J01,77065,Saint-Adolphe-d'Howard,Municipalité,1974-01-22,e55b7d8dbbe611d892e2080020a0f4c9,Inconnu,Verona,Lac,
42846,"Mousseau, Lac",4173,"Beauchamp, Lac",Lac,46.294166,-74.204166,31J08,62060,Saint-Donat,Municipalité,1973-06-06,e5647e3ebbe611d892e2080020a0f4c9,Français,Mousseau,Lac,
107050,"Maskotci Sakahikan",4200,"Beauclerc, Lac",Lac,47.666963,-74.221474,31O09,90012,La Tuque,Ville,1981-03-05,e901f065bbe611d892e2080020a0f4c9,Attikamek,Maskotci Sakahikan,,
4213,"Beaudet, Pointe",4219,"Beaudette, Pointe",Pointe,45.197758,-74.322618,31G01,71005,Rivière-Beaudette,Municipalité,1974-08-02,eacec131bbe611d892e2080020a0f4c9,Français,Beaudet,Pointe,
77189,"Beaudoin, Lac",4224,"Beaudin, Lac",Lac,46.505555,-73.896944,31I12,62912,Saint-Guillaume-Nord,Territoire non organisé,1978-08-17,eadd6733bbe611d892e2080020a0f4c9,Français,Beaudoin,Lac,
39861,"Maurice, Lac",4252,"Beaudry, Lac",Lac,47.324999,-71.055833,21M06,21904,Lac-Jacques-Cartier,Territoire non organisé,1971-06-01,ee64df57bbe611d892e2080020a0f4c9,Français,Maurice,Lac,
4277,"Beauharnois",,,Division de recensement,45.233333,-74.050000,31G01,70052,Salaberry-de-Valleyfield,Ville,1994-08-19,48e5438a52b24a35a2e57558f97a1269,Français,Beauharnois,,
5874,"Bissonnette, Lac",4294,"Beaulac, Lac",Lac,46.022777,-73.900833,31I04,62047,Chertsey,Municipalité,1973-07-18,f55992dbbbe611d892e2080020a0f4c9,Français,Bissonnette,Lac,
81794,"Killarney, Lac",4294,"Beaulac, Lac",Lac,46.022777,-73.900833,31I04,62047,Chertsey,Municipalité,1973-07-18,f55992dbbbe611d892e2080020a0f4c9,Anglais,Killarney,Lac,
13799,"Clair, Petit lac",4304,"Beaulieu, Lac",Lac,46.324721,-73.915833,31I05,62912,Saint-Guillaume-Nord,Territoire non organisé,1975-03-06,f5925623bbe611d892e2080020a0f4c9,Français,Clair,Petit lac,
8247,"Bretelle, Lac",4307,"Beaulieu, Lac",Lac,47.572402,-71.599138,21M12,21904,Lac-Jacques-Cartier,Territoire non organisé,1971-06-01,f598bec4bbe611d892e2080020a0f4c9,Français,Bretelle,Lac,
107936,"Beaumier, Lac",4338,"Beaunier, Lac",Lac,56.979721,-68.780554,24C15,99902,Rivière-Koksoak,Territoire non organisé,1968-12-05,f93630ebbbe611d892e2080020a0f4c9,Français,Beaumier,Lac,NA
77841,"Chicot, Lac",4346,"Beaumont, Lac",Lac,47.129443,-71.479999,21M03,22035,Stoneham-et-Tewkesbury,Municipalité de cantons unis,1978-08-17,fadc3fd1bbe611d892e2080020a0f4c9,Français,Chicot,Lac,
38093,"Maillou, Ruisseau",4349,"Beaumont, Ruisseau",Ruisseau,46.855277,-70.951666,21L15,19105,Beaumont,Municipalité,1975-01-21,faeb33f3bbe611d892e2080020a0f4c9,Français,Maillou,Ruisseau,
67700,"Yvon, Lac",4354,"Beau-Père, Lac",Lac,46.433610,-73.685555,31I05,62080,Saint-Zénon,Municipalité,1975-03-06,fc8cd608bbe611d892e2080020a0f4c9,Français,Yvon,Lac,
334975,"Rang Sainte-Thérèse, Ruisseau",4361,"Beauport, Rivière",Section de cours d'eau,46.899166,-71.210555,21L14,23027,Québec,Ville,1997-08-14,fcaf040dbbe611d892e2080020a0f4c9,Français,Rang Sainte-Thérèse,Ruisseau,
50194,"Pointu, Lac",4368,"Beaupré, Lac",Lac,47.582221,-70.806388,21M10,16902,Lac-Pikauba,Territoire non organisé,1971-06-01,fcca7b51bbe611d892e2080020a0f4c9,Français,Pointu,Lac,
24848,"Gauvreau, Île à",4378,"Beauregard, Île",Île,45.752777,-73.409166,31H14,59025,Verchères,Municipalité,1975-01-21,fe87e2cabbe611d892e2080020a0f4c9,Français,Gauvreau,Île à,
29130,"Huard, Lac",4410,"Beaussier, Lac",Lac,48.876004,-74.179482,32B16,91902,Lac-Ashuapmushuan,Territoire non organisé,1972-03-28,03cfd0a7bbe711d892e2080020a0f4c9,Français,Huard,Lac,
47393,"Paul, Lac",4410,"Beaussier, Lac",Lac,48.876004,-74.179482,32B16,91902,Lac-Ashuapmushuan,Territoire non organisé,1972-03-28,03cfd0a7bbe711d892e2080020a0f4c9,Français,Paul,Lac,
35102,"Leclerc, Lac",4420,"Beauvais, Lac",Lac,47.554550,-71.150711,21M11,21904,Lac-Jacques-Cartier,Territoire non organisé,1971-06-01,058289bfbbe711d892e2080020a0f4c9,Français,Leclerc,Lac,
81844,"Bouchaux, Lac",4470,"Beaver, Lac",Lac,48.094271,-73.084677,32A03,91902,Lac-Ashuapmushuan,Territoire non organisé,1978-08-17,07962792bbe711d892e2080020a0f4c9,Français,Bouchaux,Lac,
50960,"Poupée, Lac de la",4497,"Bébé, Lac",Lac,46.502500,-74.296388,31J09,62914,Lac-des-Dix-Milles,Territoire non organisé,1972-01-11,094907b9bbe711d892e2080020a0f4c9,Français,Poupée,Lac de la,
72451,"Larochelle",4505,"Bécancour",Municipalité de village,46.348080,-72.434546,31I08,38010,Bécancour,Ville,1976-12-24,0aff9161bbe711d892e2080020a0f4c9,Français,Larochelle,,
72453,"Laval",4505,"Bécancour",Municipalité de village,46.348080,-72.434546,31I08,38010,Bécancour,Ville,1976-12-24,0aff9161bbe711d892e2080020a0f4c9,Français,Laval,,
72545,"Sainte-Gertrude",4505,"Bécancour",Municipalité de paroisse,46.348080,-72.434546,31I08,38010,Bécancour,Ville,1976-12-24,0aff9161bbe711d892e2080020a0f4c9,Français,Sainte-Gertrude,,
72609,"Très-Précieux-Sang-de-Notre-Seigneur",4505,"Bécancour",Municipalité de paroisse,46.348080,-72.434546,31I08,38010,Bécancour,Ville,1976-12-24,0aff9161bbe711d892e2080020a0f4c9,Français,Très-Précieux-Sang-de-Notre-Seigneur,,
100216,"Bédard, Grand lac",4570,"Bédard, Lac",Lac,47.085610,-71.831027,21M04,34128,Saint-Raymond,Ville,1981-04-02,12452411bbe711d892e2080020a0f4c9,Français,Bédard,Grand lac,
180166,"Sac à Plomb, Grand lac",4578,"Bédard, Lac",Lac,47.988333,-68.735277,21N15,13062,Lac-des-Aigles,Ville,2002-04-12,13e391d6bbe711d892e2080020a0f4c9,Français,Sac à Plomb,Grand lac,
10138,"Canards, Lac aux",4726,"Belec, Lac",Lac,49.077221,-73.424443,32H03,91902,Lac-Ashuapmushuan,Territoire non organisé,1971-06-18,a321080fbbe711d892e2080020a0f4c9,Français,Canards,Lac aux,
14377,"Cœur, Lac en",4738,"Belhumeur, Lac",Lac,46.385555,-73.796666,31I05,62912,Saint-Guillaume-Nord,Territoire non organisé,1975-03-06,a5e3aa89bbe711d892e2080020a0f4c9,Français,Cœur,Lac en,
4831,"Bellechasse",,,Division de recensement,46.666666,-70.500000,21L10,19010,Notre-Dame-Auxiliatrice-de-Buckland,Municipalité de paroisse,1994-08-19,ec92f3f3af61494b827beeb79868d01d,Français,Bellechasse,,
68078,"Berthier, Îlet de",4832,"Bellechasse, Île de",Île,46.931666,-70.766943,21L15,18065,Berthier-sur-Mer,Municipalité,1976-09-22,b59aa598bbe711d892e2080020a0f4c9,Français,Berthier,Îlet de,
71043,"Pigou, Grande anse de",4857,"Bellefleur, Anse",Anse,50.265555,-65.654722,22I05,97007,Sept-Îles,Ville,1976-09-22,b8feb83abbe711d892e2080020a0f4c9,Français,Pigou,Grande anse de,
55252,"Sable, Île au",4862,"Bellegarde, Île",Île,45.730832,-73.423610,31H11,59020,Varennes,Ville,1975-01-21,bb0c628fbbe711d892e2080020a0f4c9,Français,Sable,Île au,
4925,"Belle Truite, Lac",4884,"Belle Pêche, Lac de la",Lac,48.008888,-71.637221,22D04,93906,Lac-Achouakan,Territoire non organisé,1971-06-01,be03f7bebbe711d892e2080020a0f4c9,Français,Belle Truite,Lac,
14248,"Club, Montagne du",4942,"Bellevue, Mont",Mont,46.186944,-74.573332,31J02,78102,Mont-Tremblant,Ville,1975-01-21,c82e81ecbbe711d892e2080020a0f4c9,Indifférencié,Club,Montagne du,
36450,"Long, Lac",4952,"Belley, Lac",Lac,45.724999,-74.614722,31G10,76052,Grenville-sur-la-Rouge,Municipalité,1970-03-06,ca41d193bbe711d892e2080020a0f4c9,Français,Long,Lac,
50631,"Portage, Lac",4953,"Belley, Lac",Lac,47.862261,-71.491133,21M14,21904,Lac-Jacques-Cartier,Territoire non organisé,1971-06-01,ca50ecc4bbe711d892e2080020a0f4c9,Français,Portage,Lac,
110205,"Caribou, Lacs du",4965,"Bellisle, Lac",Lacs,47.117910,-78.942860,31M02,85907,Les Lacs-du-Témiscamingue,Territoire non organisé,1972-05-15,cc47177abbe711d892e2080020a0f4c9,Langue amérindienne indéterminée,Caribou,Lacs du,
26625,"Premier Grand Ruisseau",4995,"Belœil, Ruisseau",Ruisseau,45.645277,-73.207500,31H11,57050,Saint-Marc-sur-Richelieu,Municipalité,1969-09-23,cf1e526bbbe711d892e2080020a0f4c9,Français,Premier Grand Ruisseau,,
78034,"Bolduc, Lac",5025,"Ben, Lac",Lac,47.561325,-74.661119,31O10,79910,Lac-Bazinet,Territoire non organisé,1978-08-17,d3dff940bbe711d892e2080020a0f4c9,Français,Bolduc,Lac,
78555,"Ochikunu, Lac",5044,"Benès, Lac",Lac,48.142538,-73.507155,32A04,90012,La Tuque,Ville,1978-08-17,d6372fbbbbe711d892e2080020a0f4c9,Cri,Ochikunu,Lac,
315694,"Natirnajuap Qarqanga",5068,"Bennett, Mont",Mont,61.578910,-71.591688,25E12,99902,Rivière-Koksoak,Territoire non organisé,1996-03-29,da7c538cbbe711d892e2080020a0f4c9,Inuktitut,Natirnajuap Qarqanga,,
104472,"Kakickapiskakamacik",5098,"Bent, Lac",Lac,47.476157,-74.661977,31O07,79910,Lac-Bazinet,Territoire non organisé,1981-07-09,50d88cbbbbea11d892e2080020a0f4c9,Langue amérindienne indéterminée,Kakickapiskakamacik,,
6812,"Bon à Rien, Lac",5108,"Bérard, Lac",Lac,46.389166,-74.172777,31J08,62060,Saint-Donat,Municipalité,1972-01-11,52adc1f5bbea11d892e2080020a0f4c9,Français,Bon à Rien,Lac,
41316,"Mines, Lac des",5108,"Bérard, Lac",Lac,46.389166,-74.172777,31J08,62060,Saint-Donat,Municipalité,1974-01-22,52adc1f5bbea11d892e2080020a0f4c9,Français,Mines,Lac des,
78992,"Bernard, Lac",5109,"Bérard, Lac",Lac,48.070063,-74.209472,32B01,90012,La Tuque,Ville,1978-08-17,52b5d846bbea11d892e2080020a0f4c9,Français,Bernard,Lac,
73974,"Wayaskami, Lac",5130,"Bereziuk, Lac",Partie de réservoir,54.000277,-76.303333,33K01,99060,Eeyou Istchee Baie-James,Gouvernement régional,1977-02-18,54951fa4bbea11d892e2080020a0f4c9,Cri,Wayaskami,Lac,
68060,"Bergère, Lac",5137,"Berger, Lac du",Lac,48.123332,-70.738333,22D02,94215,Rivière-Éternité,Municipalité,1975-09-23,563d9f8bbbea11d892e2080020a0f4c9,Français,Bergère,Lac,
118856,"Savane, Ruisseau de la",5139,"Berger, Rivière du",Ruisseau,46.810000,-71.299166,21L14,23027,Québec,Ville,2003-02-27,564bd05dbbea11d892e2080020a0f4c9,Français,Savane,Ruisseau de la,
36962,"Lost, Lac",5180,"Bériaux, Lac",Lac,48.873785,-74.235533,32B16,91902,Lac-Ashuapmushuan,Territoire non organisé,1972-03-28,5a0507eabbea11d892e2080020a0f4c9,Anglais,Lost,Lac,
30743,"Jardin, Île du",5212,"Bernard, Île",Île,48.684444,-72.510000,32A10,91042,Saint-Félicien,Ville,1973-08-28,5f396dc6bbea11d892e2080020a0f4c9,Français,Jardin,Île du,
67745,"Zéro, Lac",5219,"Bernard, Lac",Lac,46.406111,-73.682499,31I05,62080,Saint-Zénon,Municipalité,1975-03-06,5f51b0babbea11d892e2080020a0f4c9,Français,Zéro,Lac,
48987,"Pierre, Lac",5241,"Berne, Lac",Lac,46.724999,-76.695555,31K10,83902,Lac-Pythonga,Territoire non organisé,1974-01-22,62b4b1eabbea11d892e2080020a0f4c9,Français,Pierre,Lac,
5287,"Berriers, Lac",5243,"Berners, Lac",Lac,47.633888,-72.072777,31P09,22902,Lac-Croche,Territoire non organisé,1994-02-04,62c098ccbbea11d892e2080020a0f4c9,Inconnu,Berriers,Lac,
30346,"Isles, Lac des",5248,"Berneuil, Lac",Lac,46.238333,-75.441666,31J03,79025,Kiamika,Municipalité,1972-01-11,62df6b71bbea11d892e2080020a0f4c9,Français,Isles,Lac des,
44472,"Noir Numéro Deux, Lac",5257,"Bernier, Lac",Lac,47.403611,-71.086388,21M06,21904,Lac-Jacques-Cartier,Territoire non organisé,1971-06-01,648d1b79bbea11d892e2080020a0f4c9,Français,Noir Numéro Deux,Lac,
186487,"Tikiraarjuaq, Pointe",5270,"Bernier, Pointe",Pointe,61.461388,-77.810000,35F05,99904,Baie-d'Hudson,Territoire non organisé,1987-06-25,663c2b11bbea11d892e2080020a0f4c9,Inuktitut,Tikiraarjuaq,Pointe,
186488,"Tikirarjuaq, Pointe",5270,"Bernier, Pointe",Pointe,61.461388,-77.810000,35F05,99904,Baie-d'Hudson,Territoire non organisé,1987-06-25,663c2b11bbea11d892e2080020a0f4c9,Inuktitut,Tikirarjuaq,Pointe,
92940,"Maskinongé, Rivière",5272,"Bernier, Rivière",Rivière,45.781110,-71.343055,21E14,30110,Stratford,Municipalité de canton,1979-12-18,66483903bbea11d892e2080020a0f4c9,Langue amérindienne indéterminée,Maskinongé,Rivière,
29574,"Île aux Tourtes, Ruisseau de l'",5273,"Bernier, Rivière",Rivière,46.510555,-72.776666,31I10,51085,Saint-Boniface,Municipalité,1975-03-06,664f16d4bbea11d892e2080020a0f4c9,Français,Île aux Tourtes,Ruisseau de l',
42762,"Moulin de Bernier, Ruisseau du",5273,"Bernier, Rivière",Rivière,46.510555,-72.776666,31I10,51085,Saint-Boniface,Municipalité,1975-03-06,664f16d4bbea11d892e2080020a0f4c9,Français,Moulin de Bernier,Ruisseau du,
30921,"Jeanne, Lac",5339,"Berthe, Lac",Lac,46.332777,-75.361666,31J06,79924,Lac-Ernest,Territoire non organisé,1972-01-11,6d5ccf9cbbea11d892e2080020a0f4c9,Français,Jeanne,Lac,
104614,"Okamakamaw Sipi",5349,"Berthelot, Ruisseau",Ruisseau,48.500583,-75.547063,32B12,89040,Senneterre,Ville,1981-07-09,6d884c73bbea11d892e2080020a0f4c9,Attikamek,Okamakamaw Sipi,,
5360,"Berthier",,,Division de recensement,46.250000,-73.416666,31I06,52085,Saint-Gabriel-de-Brandon,Municipalité,1994-08-19,7594bf6ddb5945f9854db63c6192d222,Français,Berthier,,
70876,"Pelletier, Lac",5362,"Berthier, Lac",Lac,46.263611,-73.469443,31I06,62015,Saint-Jean-de-Matha,Municipalité,1975-12-02,6f41e35dbbea11d892e2080020a0f4c9,Français,Pelletier,Lac,
70416,"Merisier, Lac",5425,"Berval, Lac",Lac,46.024721,-74.521110,31J02,78055,Montcalm,Municipalité,1975-12-02,764a9418bbea11d892e2080020a0f4c9,Français,Merisier,Lac,
65051,"Vase, Lac",5426,"Berval, Lac",Lac,47.784999,-78.984444,31M15,85105,Rémigny,Municipalité,1968-12-05,7653e2e9bbea11d892e2080020a0f4c9,Français,Vase,Lac,
6344,"Blind, Lac",5427,"Béryl, Lac du",Lac,47.476871,-76.783221,31N07,89910,Réservoir-Dozois,Territoire non organisé,1973-01-16,7659fd6abbea11d892e2080020a0f4c9,Anglais,Blind,Lac,
62346,"Thérèse, Lac",5432,"Besace, Lac de la",Lac,49.618610,-74.169443,32G09,91902,Lac-Ashuapmushuan,Territoire non organisé,1971-06-18,77f02dcebbea11d892e2080020a0f4c9,Français,Thérèse,Lac,
69689,"Huards, Lac des",5445,"Bessette, Lac",Lac,46.176943,-74.666666,31J02,78102,Mont-Tremblant,Ville,1975-12-02,79bc3b49bbea11d892e2080020a0f4c9,Français,Huards,Lac des,
20297,"Écho, Lac",5459,"Bêta, Lac",Lac,46.115277,-74.941666,31J02,78130,La Minerve,Municipalité,1974-03-28,7b755d03bbea11d892e2080020a0f4c9,Français,Écho,Lac,
49493,"Pins, Lac des",5459,"Bêta, Lac",Lac,46.115277,-74.941666,31J02,78130,La Minerve,Municipalité,1974-03-28,7b755d03bbea11d892e2080020a0f4c9,Français,Pins,Lac des,
84977,"L'Enfant-Jésus-d'Ely",5479,"Béthanie",Village,45.501461,-72.437391,31H09,48005,Béthanie,Municipalité,1978-08-17,7d49f600bbea11d892e2080020a0f4c9,Français,L'Enfant-Jésus-d'Ely,,
5317,"Bersimis, Pointe",5497,"Betsiamites, Pointe de",Pointe,48.936388,-68.639721,22C15,96802,Pessamit,Réserve indienne,1986-12-18,7f1e8efebbea11d892e2080020a0f4c9,Anglais,Bersimis,Pointe,
101693,"Chicot, Lac",5503,"Betty, Lac",Lac,47.248333,-71.941388,21M04,34902,Lac-Blanc,Territoire non organisé,1981-04-02,7f786ed1bbea11d892e2080020a0f4c9,Français,Chicot,Lac,
82389,"Bevan, Lac",5525,"Bevin, Lac",Lac,48.592827,-72.825407,32A10,91902,Lac-Ashuapmushuan,Territoire non organisé,1978-08-17,82db9711bbea11d892e2080020a0f4c9,Indifférencié,Bevan,Lac,
77226,"Jaune, Lac",5538,"Bezier, Lac",Lac,46.564444,-73.710555,31I12,62080,Saint-Zénon,Municipalité,1978-08-17,849f8e3cbbea11d892e2080020a0f4c9,Français,Jaune,Lac,
100215,"Grigg, Lac",5542,"Biais, Lac en",Lac,47.114322,-71.982477,21M04,34904,Linton,Territoire non organisé,1981-04-02,84b909b0bbea11d892e2080020a0f4c9,Anglais,Grigg,Lac,
47778,"Pélotte, Île à",5552,"Bibeau, Île",Île,46.072499,-72.986110,31I02,53065,Sainte-Anne-de-Sorel,Municipalité,1975-01-21,8677d0b9bbea11d892e2080020a0f4c9,Français,Pélotte,Île à,
5024,"Ben, Lac",5593,"Bidou, Lac",Lac,46.529443,-73.421943,31I11,52095,Mandeville,Municipalité,1972-01-11,8c013469bbea11d892e2080020a0f4c9,Indifférencié,Ben,Lac,
101802,"Micta Minictikw",5621,"Big, Île",Île,47.508613,-74.278699,31O09,62918,Baie-Obaoca,Territoire non organisé,1981-03-05,900d46e1bbea11d892e2080020a0f4c9,Attikamek,Micta Minictikw,,
33956,"Landry, Grand lac",5636,"Bigart, Lac",Lac,47.255277,-72.133888,31P08,34904,Linton,Territoire non organisé,1971-06-01,91a8f586bbea11d892e2080020a0f4c9,Français,Landry,Grand lac,
50951,"Pouliot, Ruisseau",5665,"Bignell, Rivière",Rivière,49.605277,-67.695555,22G12,96902,Rivière-aux-Outardes,Territoire non organisé,1970-07-15,93aa91fbbbea11d892e2080020a0f4c9,Français,Pouliot,Ruisseau,
5688,"Bigras-Island",,,Station de chemin de fer,45.520277,-73.853888,31H12,65005,Laval,Ville,2023-06-06,970024aabbea11d892e2080020a0f4c9,Français,Bigras-Island,,NA
36364,"Log, Lac du",5727,"Billots, Lac aux",Lac,45.757500,-75.827499,31G13,82015,Val-des-Monts,Municipalité,1970-02-27,9c48aec8bbea11d892e2080020a0f4c9,Inconnu,Log,Lac du,
46411,"Ovila, Lac",5758,"Bina, Lac",Lac,47.939444,-71.676110,21M13,21904,Lac-Jacques-Cartier,Territoire non organisé,1971-06-01,9ff3b583bbea11d892e2080020a0f4c9,Français,Ovila,Lac,
5762,"Binet, Lac",5766,"Binet, Petit lac",Lac,46.342221,-75.347499,31J06,79924,Lac-Ernest,Territoire non organisé,1974-03-28,a0140ec8bbea11d892e2080020a0f4c9,Français,Binet,Lac,
65592,"Vert, Lac",5766,"Binet, Petit lac",Lac,46.342221,-75.347499,31J06,79924,Lac-Ernest,Territoire non organisé,1974-03-28,a0140ec8bbea11d892e2080020a0f4c9,Français,Vert,Lac,
63751,"Trois Grâces, Lac les",5785,"Birau, Lac",Lac,49.263055,-73.397221,32H06,91902,Lac-Ashuapmushuan,Territoire non organisé,1971-06-18,a36e0f46bbea11d892e2080020a0f4c9,Français,Trois Grâces,Lac les,
81774,"Whalen, Lac",5825,"Biron, Lac",Lac,47.937221,-73.589999,31P13,90012,La Tuque,Ville,1977-08-08,a5609086bbea11d892e2080020a0f4c9,Anglais,Whalen,Lac,
5939,"Black, Lacs",,,Lacs,46.902222,-78.111944,31L16,85907,Les Lacs-du-Témiscamingue,Territoire non organisé,1993-10-21,a0cdf5ef65af41cb9cffaba31769db9d,Anglais,Black,Lacs,
6041,"Blais, Île",424545,"Pierre-Blais, Île à",Île,50.681943,-59.202777,12J11,98015,Côte-Nord-du-Golfe-du-Saint-Laurent,Municipalité,2016-12-09,b8483240bbea11d892e2080020a0f4c9,Français,Blais,Île,NA
107953,"Kawewadamikwewi Sibi",6059,"Blais, Ruisseau",Ruisseau,49.240277,-78.841666,32E02,99060,Eeyou Istchee Baie-James,Gouvernement régional,1981-04-02,ba3200efbbea11d892e2080020a0f4c9,Algonquin,Kawewadamikwewi Sibi,,NA
29843,"Îlot, Pointe",6075,"Blanc, Cap",Cap,48.131943,-69.762500,22C04,15065,Baie-Sainte-Catherine,Municipalité,1974-08-02,bc11e48dbbea11d892e2080020a0f4c9,Français,Îlot,Pointe,
24456,"Gamache, Falaise",6079,"Blanc, Cap",Falaise,49.811944,-64.344721,22H16,98020,L'Île-d'Anticosti,Municipalité,1974-09-12,bdac5ab1bbea11d892e2080020a0f4c9,Français,Gamache,Falaise,
67023,"White Cliff",6079,"Blanc, Cap",Falaise,49.811944,-64.344721,22H16,98020,L'Île-d'Anticosti,Municipalité,1974-09-12,bdac5ab1bbea11d892e2080020a0f4c9,Anglais,White Cliff,,
71425,"Rock, Lac",6087,"Blanc, Lac",Lac,46.271110,-74.728610,31J07,78120,Labelle,Municipalité,2009-09-22,41bf8c83bf0a11d892e2080020a0f4c9,Anglais,Rock,Lac,
77587,"Brochet, Lac",6097,"Blanc, Lac",Lac,46.720554,-74.043888,31J09,62085,Saint-Michel-des-Saints,Municipalité,1978-08-17,bf7a8b0dbbea11d892e2080020a0f4c9,Français,Brochet,Lac,
45560,"Opalin, Lac",6107,"Blanc, Lac",Lac,47.630832,-70.949444,21M10,16902,Lac-Pikauba,Territoire non organisé,1990-06-20,bf9e3eb2bbea11d892e2080020a0f4c9,Français,Opalin,Lac,NA
101816,"Wapisi Sakahikan",6108,"Blanc, Lac",Lac,47.630521,-74.275518,31O09,90012,La Tuque,Ville,1981-03-05,bfa56aa3bbea11d892e2080020a0f4c9,Langue amérindienne indéterminée,Wapisi Sakahikan,,
79947,"De Monts, Lac",6122,"Blanc, Lac",Lac,49.371110,-67.558888,22G05,96010,Godbout,Municipalité de village,1987-10-27,c16babbebbea11d892e2080020a0f4c9,Français,De Monts,Lac,
21542,"Etchemin Nord-Est, Rivière",6185,"Blanche, Rivière",Rivière,46.511111,-70.414166,21L09,28060,Saint-Luc-de-Bellechasse,Municipalité,1973-07-18,c88bdc19bbea11d892e2080020a0f4c9,Langue amérindienne indéterminée,Etchemin Nord-Est,Rivière,
6401,"Blue, Lac",6275,"Bleu, Lac",Lac,45.829443,-74.537499,31G15,76065,Harrington,Municipalité de canton,1970-02-27,d4c1036ebbea11d892e2080020a0f4c9,Anglais,Blue,Lac,
77415,"Croche, Lac",6284,"Bleu, Lac",Lac,46.922221,-71.979999,21L13,34115,Saint-Léonard-de-Portneuf,Municipalité,1978-08-17,d4ea0f44bbea11d892e2080020a0f4c9,Français,Croche,Lac,
68135,"Bleau, Lac",6286,"Bleu, Lac",Lac,47.400352,-72.424532,31P08,90012,La Tuque,Ville,1976-09-22,d4f77cc6bbea11d892e2080020a0f4c9,Français,Bleau,Lac,
138350,"Grants, Ruisseau",6299,"Bleu, Ruisseau",Ruisseau,48.461111,-65.036388,22A06,02902,Mont-Alexandre,Territoire non organisé,1984-11-08,d6a9c0aebbea11d892e2080020a0f4c9,Anglais,Grants,Ruisseau,
22945,"Foin, Gros lac au",6319,"Bleuets, Lac aux",Lac,48.285177,-71.032785,22D06,94928,Lac-Ministuk,Territoire non organisé,1975-01-21,d88118cbbbea11d892e2080020a0f4c9,Français,Foin,Gros lac au,
82317,"Léon-Mimeault, Lac à",6346,"Blizon, Lac",Lac,49.108888,-65.651111,22H04,04902,Mont-Albert,Territoire non organisé,1978-08-17,e6b36f80bbea11d892e2080020a0f4c9,Français,Léon-Mimeault,Lac à,
2470,"Attrape à Ours, Lac",6366,"Blondelas, Lac",Lac,49.331110,-72.753888,32H07,92904,Rivière-Mistassini,Territoire non organisé,1971-06-18,ea71b012bbea11d892e2080020a0f4c9,Français,Attrape à Ours,Lac,
6295,"Bleu, Lac",6366,"Blondelas, Lac",Lac,49.331110,-72.753888,32H07,92904,Rivière-Mistassini,Territoire non organisé,1971-06-18,ea71b012bbea11d892e2080020a0f4c9,Français,Bleu,Lac,
55798,"Saint-Charles, Lac",6370,"Blondin, Lac",Lac,46.371110,-73.439166,31I06,62075,Saint-Damien,Municipalité de paroisse,1975-03-06,ea8b79a5bbea11d892e2080020a0f4c9,Français,Saint-Charles,Lac,
50530,"Pope, Ruisseau",6475,"Bobines, Ruisseau des",Ruisseau,45.215277,-71.651388,21E04,44055,Sainte-Edwidge-de-Clifton,Municipalité de canton,1973-08-31,f62c4f34bbea11d892e2080020a0f4c9,Anglais,Pope,Ruisseau,
990,"Allix, Ruisseau",6491,"Bock, Ruisseau",Ruisseau,46.555555,-75.511944,31J12,79088,Mont-Laurier,Ville,1975-04-08,f82d4f61bbea11d892e2080020a0f4c9,Inconnu,Allix,Ruisseau,
45700,"Orignal, Ruisseau de l'",6491,"Bock, Ruisseau",Ruisseau,46.555555,-75.511944,31J12,79088,Mont-Laurier,Ville,1975-04-08,f82d4f61bbea11d892e2080020a0f4c9,Français,Orignal,Ruisseau de l',
7482,"Boule, Lac de la",6502,"Bœuf, Lac",Lac,46.206388,-74.259444,31J01,62060,Saint-Donat,Municipalité,1974-01-22,fa051caabbea11d892e2080020a0f4c9,Français,Boule,Lac de la,
21540,"Etchemin Nord, Rivière",6508,"Bœuf, Rivière à",Rivière,46.498610,-70.437221,21L08,28060,Saint-Luc-de-Bellechasse,Municipalité,1973-07-18,fa2cc8eebbea11d892e2080020a0f4c9,Langue amérindienne indéterminée,Etchemin Nord,Rivière,
100214,"Mousse, Lac",6522,"Bogève, Lac",Lac,47.243952,-71.857138,21M04,34902,Lac-Blanc,Territoire non organisé,1981-04-02,fbecef84bbea11d892e2080020a0f4c9,Français,Mousse,Lac,
71110,"Plat, Lac",6531,"Bohémier, Lac",Lac,47.876110,-72.069166,31P16,90012,La Tuque,Ville,1975-09-23,fdc1887dbbea11d892e2080020a0f4c9,Français,Plat,Lac,
6542,"Boileau",,,Hameau,45.901111,-74.774166,31G15,80115,Boileau,Municipalité,2005-02-02,fe399eb7bbea11d892e2080020a0f4c9,Français,Boileau,,
67436,"Wood, Îlet",6562,"Bois, Îlet au",Îlot,50.894999,-58.970277,12J15,98014,Gros-Mécatina,Municipalité,1971-06-18,01aec857bbeb11d892e2080020a0f4c9,Anglais,Wood,Îlet,
26090,"Gouvernement, Rivière du",6578,"Bois Blanc, Rivière du",Rivière,46.159166,-73.035555,31I03,51008,Maskinongé,Municipalité,1975-01-21,038cfe45bbeb11d892e2080020a0f4c9,Français,Gouvernement,Rivière du,
73709,"Carré, Lac",6580,"Boisbouscache, Lac",Lac,48.128054,-68.841110,22C02,11902,Lac-Boisbouscache,Territoire non organisé,1977-02-18,0399cf87bbeb11d892e2080020a0f4c9,Français,Carré,Lac,
36141,"Linecar, Lac",6585,"Boisbriand, Lac",Lac,50.227499,-78.279999,32L01,99060,Eeyou Istchee Baie-James,Gouvernement régional,1970-07-15,052b1deabbeb11d892e2080020a0f4c9,Anglais,Linecar,Lac,
41149,"Mill, Ruisseau",6593,"Bois Brûlé, Ruisseau du",Ruisseau,48.701111,-64.260555,22A09,03005,Gaspé,Ville,1975-01-21,055f9b72bbeb11d892e2080020a0f4c9,Anglais,Mill,Ruisseau,
82375,"Sept Lacs, Les",6595,"Boisbuisson, Lacs",Lacs,49.084166,-65.821666,22H04,04902,Mont-Albert,Territoire non organisé,1978-08-17,06ee51c4bbeb11d892e2080020a0f4c9,Français,Sept Lacs,Les,
79483,"Flacon, Lac",6623,"Bois Franc, Lac",Lac,46.503611,-73.702500,31I12,62080,Saint-Zénon,Municipalité,1978-08-17,08e7b0d6bbeb11d892e2080020a0f4c9,Français,Flacon,Lac,
7030,"Booth, Lac",6625,"Bois Franc, Lac",Lac,46.753055,-78.614166,31L15,85907,Les Lacs-du-Témiscamingue,Territoire non organisé,1993-06-18,08ee8ea7bbeb11d892e2080020a0f4c9,Anglais,Booth,Lac,
52220,"Ranchot, Lac",6631,"Bois Franc, Lac du",Lac,46.448055,-74.316943,31J08,62914,Lac-des-Dix-Milles,Territoire non organisé,1972-01-11,08f56c78bbeb11d892e2080020a0f4c9,Indifférencié,Ranchot,Lac,
85981,"Hardwood, Lac",6632,"Bois Franc, Lac du",Lac,46.505555,-78.134721,31L09,85907,Les Lacs-du-Témiscamingue,Territoire non organisé,1971-10-19,08fb86f9bbeb11d892e2080020a0f4c9,Anglais,Hardwood,Lac,
344485,"Bois Franc, Grand lac du",6633,"Bois Franc, Lac du",Lac,46.523888,-75.680832,31J12,79088,Mont-Laurier,Ville,1998-03-04,0a7ea48abbeb11d892e2080020a0f4c9,Français,Bois Franc,Grand lac du,
11183,"Cassian, Cinquième lac",6665,"Boisselle, Lac",Lac,47.155808,-71.482671,21M03,22035,Stoneham-et-Tewkesbury,Municipalité de cantons unis,1974-08-02,0e2c4354bbeb11d892e2080020a0f4c9,Français,Cassian,Cinquième lac,NA
28303,"Hébert, Lac",6687,"Boisvert, Lac",Lac,46.837221,-73.477777,31I14,62902,Lac-Minaki,Territoire non organisé,1972-01-11,100d5f73bbeb11d892e2080020a0f4c9,Français,Hébert,Lac,
6692,"Boisvert, Lac",455311,"Uakau, Lac",Lac,47.729316,-70.884405,21M10,16902,Lac-Pikauba,Territoire non organisé,2024-03-13,119d7556bbeb11d892e2080020a0f4c9,Français,Boisvert,Lac,NA
35944,"Lièvre, Lac",6717,"Bois Verts, Lac des",Lac,47.696944,-70.736944,21M10,16902,Lac-Pikauba,Territoire non organisé,1971-06-01,13937908bbeb11d892e2080020a0f4c9,Français,Lièvre,Lac,NA
103362,"Bezeau, Lac",6723,"Boiteau, Lac",Lac,46.989166,-72.493888,31I16,35010,Lac-aux-Sables,Municipalité de paroisse,1981-05-07,1529825cbbeb11d892e2080020a0f4c9,Français,Bezeau,Lac,
73763,"Îles de la Boiteuse, Lac des",6727,"Boiteuse, Lac de la",Lac,48.901666,-71.275554,22D14,94930,Mont-Valin,Territoire non organisé,1977-02-18,154324e0bbeb11d892e2080020a0f4c9,Français,Îles de la Boiteuse,Lac des,
10237,"Canot, Lac au",6736,"Boivin, Lac",Lac,47.651308,-72.411080,31P09,90027,Lac-Édouard,Municipalité,1971-06-01,156a8306bbeb11d892e2080020a0f4c9,Langue amérindienne indéterminée,Canot,Lac au,
78307,"Raymond, Lac",6749,"Boivinet, Lac",Lac,48.191771,-73.414588,32A03,90012,La Tuque,Ville,1978-08-17,17330e11bbeb11d892e2080020a0f4c9,Français,Raymond,Lac,
19944,"Dusiurabic, Rivière",6751,"Boizard, Rivière",Rivière,58.314444,-77.842777,34K05,99904,Baie-d'Hudson,Territoire non organisé,1973-03-21,18bd5793bbeb11d892e2080020a0f4c9,Indifférencié,Dusiurabic,Rivière,
186489,"Ammalurtuq, Lac",6767,"Bolduc, Lac",Lac,61.360555,-77.512777,35F05,99904,Baie-d'Hudson,Territoire non organisé,1987-06-25,1a960f41bbeb11d892e2080020a0f4c9,Inuktitut,Ammalurtuq,Lac,
186490,"Ammaluttuq, Lac",6767,"Bolduc, Lac",Lac,61.360555,-77.512777,35F05,99904,Baie-d'Hudson,Territoire non organisé,1987-06-25,1a960f41bbeb11d892e2080020a0f4c9,Inuktitut,Ammaluttuq,Lac,
186491,"Iqalulik, Lac",6767,"Bolduc, Lac",Lac,61.360555,-77.512777,35F05,99904,Baie-d'Hudson,Territoire non organisé,1987-06-25,1a960f41bbeb11d892e2080020a0f4c9,Inuktitut,Iqalulik,Lac,
6817,"Bonaventure",,,Division de recensement,48.333333,-66.000000,22A05,05902,Rivière-Bonaventure,Territoire non organisé,1994-08-19,9dee710c265a4aba8d562bc7d52f9491,Français,Bonaventure,,
3463,"Bare, Rochers",6842,"Bon-Désir, Cayes de",Rochers,48.267499,-69.485833,22C06,95018,Les Bergeronnes,Municipalité,1986-12-18,2385a778bbeb11d892e2080020a0f4c9,Anglais,Bare,Rochers,
47289,"Patricia, Lac",6846,"Bondeval, Lac",Lac,47.100863,-76.897613,31N02,83902,Lac-Pythonga,Territoire non organisé,1973-01-16,23a0827cbbeb11d892e2080020a0f4c9,Anglais,Patricia,Lac,
40857,"Michaud, Lac",6885,"Bonhomme-Michaud, Lac au",Lac,48.460000,-69.481110,22C06,95025,Les Escoumins,Municipalité,1974-08-02,28dc6269bbeb11d892e2080020a0f4c9,Français,Michaud,Lac,
100213,"Dancose, Lac",6912,"Bonnaud, Lac",Lac,47.151111,-71.781943,21M04,34902,Lac-Blanc,Territoire non organisé,1981-04-02,2c5adadcbbeb11d892e2080020a0f4c9,Français,Dancose,Lac,
6926,"Bonne-Espérance",,,Hameau,51.390277,-57.668332,12P05,98010,Bonne-Espérance,Municipalité,2007-03-22,4298d324bbeb11d892e2080020a0f4c9,Français,Bonne-Espérance,,
68232,"Bouleau Jaune, Lac",6952,"Bonnet, Lac du",Lac,47.862472,-72.462688,31P16,90012,La Tuque,Ville,1975-09-23,478337a8bbeb11d892e2080020a0f4c9,Français,Bouleau Jaune,Lac,
104236,"Bonneterre, Grand lac",6958,"Bonneterre, Lac",Lac,46.497221,-73.335555,31I06,52095,Mandeville,Municipalité,1981-07-09,47a3df0abbeb11d892e2080020a0f4c9,Français,Bonneterre,Grand lac,
4922,"Belle Truite, Lac de la",6959,"Bonne Truite, Lac de la",Lac,48.708055,-71.302777,22D11,94250,Bégin,Municipalité,1975-04-08,47b459cbbbeb11d892e2080020a0f4c9,Français,Belle Truite,Lac de la,
44032,"Nicolas, Lac",6961,"Bonneville, Lac",Lac,47.278610,-71.407500,21M06,22035,Stoneham-et-Tewkesbury,Municipalité de cantons unis,1971-06-01,495f71bdbbeb11d892e2080020a0f4c9,Français,Nicolas,Lac,
7644,"Boum, Lac du",7006,"Boom, Lac du",Lac,47.612566,-72.592424,31P10,90017,La Bostonnais,Municipalité,1990-01-25,4e66ad1cbbeb11d892e2080020a0f4c9,Français,Boum,Lac du,
78790,"Renière, Lac",7013,"Boomerang, Lac",Lac,48.708355,-73.122771,32A11,91902,Lac-Ashuapmushuan,Territoire non organisé,1978-08-17,502748e0bbeb11d892e2080020a0f4c9,Français,Renière,Lac,
284600,"Bonnes, Lac",7018,"Boones, Lac",Lac,46.643055,-78.365277,31L09,85907,Les Lacs-du-Témiscamingue,Territoire non organisé,1993-03-05,504c8423bbeb11d892e2080020a0f4c9,Français,Bonnes,Lac,
68679,"Clair, Lac",7037,"Borcoman, Lac",Lac,46.768332,-75.610277,31J13,79097,Ferme-Neuve,Municipalité,1976-09-22,526f642dbbeb11d892e2080020a0f4c9,Français,Clair,Lac,
4977,"Belloy, Rivière",7071,"Borel, Rivière",Rivière,59.560555,-69.676666,24N12,99902,Rivière-Koksoak,Territoire non organisé,1972-11-21,56aee2b3bbeb11d892e2080020a0f4c9,Français,Belloy,Rivière,
77634,"Baby, Lac",7093,"Bory, Lac",Lac,46.751666,-74.061111,31J16,62908,Lac-Matawin,Territoire non organisé,1978-08-17,5aa74616bbeb11d892e2080020a0f4c9,Indifférencié,Baby,Lac,
51063,"Précision, Lac",7231,"Bouché, Lac",Lac,46.636944,-73.178054,31I11,51065,Saint-Alexis-des-Monts,Municipalité de paroisse,1972-01-11,71525767bbeb11d892e2080020a0f4c9,Français,Précision,Lac,
7283,"Bouchette, Lac",7236,"Boucher, Lac",Lac,45.492221,-71.096388,21E06,30015,Val-Racine,Municipalité,1971-10-19,717bd86cbbeb11d892e2080020a0f4c9,Français,Bouchette,Lac,
17502,"Delisle, Lac",7249,"Boucher, Lac",Lac,47.420724,-72.582318,31P07,90012,La Tuque,Ville,1989-11-16,7335e483bbeb11d892e2080020a0f4c9,Français,Delisle,Lac,
30330,"Isle, Lac de l'",7249,"Boucher, Lac",Lac,47.420724,-72.582318,31P07,90012,La Tuque,Ville,1989-11-16,7335e483bbeb11d892e2080020a0f4c9,Français,Isle,Lac de l',
73722,"Blanchet, Lac",7258,"Boucher, Lac",Lac,48.768610,-71.357500,22D14,94250,Bégin,Municipalité,1977-02-18,73699ebabbeb11d892e2080020a0f4c9,Français,Blanchet,Lac,
7269,"Boucher, Rivière",,,Rivière,48.437221,-68.539721,22C07,10043,Rimouski,Ville,2004-03-16,75493435bbeb11d892e2080020a0f4c9,Français,Boucher,Rivière,
7282,"Bouchette, Île",457910,"Dumais, Île",Île,48.226468,-72.219210,32A01,91005,Lac-Bouchette,Municipalité,2024-10-03,770d2b5dbbeb11d892e2080020a0f4c9,Français,Bouchette,Île,NA
42598,"Mort, Lac",7358,"Boue, Lac de",Lac,45.751388,-74.415277,31G16,76035,Wentworth,Municipalité de canton,1972-05-09,7c888550bbeb11d892e2080020a0f4c9,Français,Mort,Lac,
25387,"Gilles, Lac",7395,"Bougie, Lac",Lac,47.526029,-71.170266,21M11,21904,Lac-Jacques-Cartier,Territoire non organisé,1971-06-01,7ff152dfbbeb11d892e2080020a0f4c9,Français,Gilles,Lac,
50367,"Poliquin, Lac",7395,"Bougie, Lac",Lac,47.526029,-71.170266,21M11,21904,Lac-Jacques-Cartier,Territoire non organisé,1971-06-01,7ff152dfbbeb11d892e2080020a0f4c9,Français,Poliquin,Lac,
49004,"Pierre, Lac",7397,"Bougie, Lac",Lac,49.638888,-74.174166,32G09,91902,Lac-Ashuapmushuan,Territoire non organisé,1971-06-18,7ff87ed0bbeb11d892e2080020a0f4c9,Français,Pierre,Lac,
315702,"Niaqunnguut",7473,"Boule, Cap la",Cap,61.700833,-71.932499,25E12,99902,Rivière-Koksoak,Territoire non organisé,1996-03-29,858bf4aabbeb11d892e2080020a0f4c9,Inuktitut,Niaqunnguut,,
104341,"Kanamekociwcik",7487,"Boule, Lac du",Lac,47.047546,-74.126388,31O01,62906,Baie-de-la-Bouteille,Territoire non organisé,1981-07-09,874627d3bbeb11d892e2080020a0f4c9,Attikamek,Kanamekociwcik,,
70076,"Legtham, Île",7502,"Bouleau, Île du",Île,46.145277,-75.844444,31J04,83032,Gracefield,Ville,1975-12-02,89069c8cbbeb11d892e2080020a0f4c9,Indifférencié,Legtham,Île,
61245,"Swaggin, Lac",7503,"Bouleau, Lac",Lac,46.347221,-73.901111,31I05,62912,Saint-Guillaume-Nord,Territoire non organisé,1975-03-06,890cde1dbbeb11d892e2080020a0f4c9,Algonquin,Swaggin,Lac,
48937,"Pie, Lac à la",7509,"Bouleau, Lac",Lac,47.403155,-72.522968,31P07,90012,La Tuque,Ville,1989-11-16,89131faebbeb11d892e2080020a0f4c9,Français,Pie,Lac à la,
10665,"Caribou, Lac du",7517,"Bouleau, Lac au",Lac,47.364844,-78.599630,31M07,85065,Belleterre,Ville,1972-05-15,891b0eefbbeb11d892e2080020a0f4c9,Langue amérindienne indéterminée,Caribou,Lac du,
7640,"Boulon, Ruisseau",7553,"Bouleau, Ruisseau",Ruisseau,47.385163,-72.506563,31P07,90012,La Tuque,Ville,1989-11-16,8caa0225bbeb11d892e2080020a0f4c9,Français,Boulon,Ruisseau,
5795,"Birch, Lac",7581,"Bouleaux, Lac des",Lac,48.052222,-68.593888,22C02,10005,Esprit-Saint,Municipalité,1971-02-11,903a2ddabbeb11d892e2080020a0f4c9,Anglais,Birch,Lac,
104332,"Kakinokamak Kawasatciwok",7631,"Boullé, Lac",Lac,47.024382,-74.155586,31O01,62906,Baie-de-la-Bouteille,Territoire non organisé,1981-07-09,975e2dc5bbeb11d892e2080020a0f4c9,Attikamek,Kakinokamak Kawasatciwok,,
53644,"Rivière Rocheuse, Deuxième lac de la",7674,"Bourbeau, Lac",Lac,48.777499,-69.579999,22C13,95902,Lac-au-Brochet,Territoire non organisé,1974-08-02,9c90e5efbbeb11d892e2080020a0f4c9,Français,Rivière Rocheuse,Deuxième lac de la,
84975,"Achikunipis, Lac",7699,"Bourdel, Lac",Lac,56.722221,-74.172777,34B09,99904,Baie-d'Hudson,Territoire non organisé,1978-08-17,9e94cc53bbeb11d892e2080020a0f4c9,Cri,Achikunipis,Lac,
64458,"Twisted, Lac",7701,"Bourdet, Lac",Lac,55.208055,-66.988610,23O02,99065,Kawawachikamach,Municipalité de village naskapi,1970-05-15,a02138b5bbeb11d892e2080020a0f4c9,Anglais,Twisted,Lac,
41530,"Mistassini, Lac",7707,"Bourdon, Lac",Lac,49.390555,-68.054166,22F08,96902,Rivière-aux-Outardes,Territoire non organisé,1974-08-02,a04a6b9bbbeb11d892e2080020a0f4c9,Innu,Mistassini,Lac,
46386,"Ouvert, Lac",7721,"Bourgeault, Lac",Lac,47.160555,-72.107777,31P01,34904,Linton,Territoire non organisé,1971-06-18,a222d528bbeb11d892e2080020a0f4c9,Français,Ouvert,Lac,
58663,"Savard, Lac",7830,"Bousquet, Lac",Lac,48.029504,-71.475727,22D03,93906,Lac-Achouakan,Territoire non organisé,1971-06-01,b0574ef9bbeb11d892e2080020a0f4c9,Français,Savard,Lac,
39360,"Martel, Lac",7842,"Bout, Lac du",Lac,47.519243,-71.387394,21M11,21904,Lac-Jacques-Cartier,Territoire non organisé,1971-06-01,b2179ca3bbeb11d892e2080020a0f4c9,Français,Martel,Lac,
2706,"Austin, Lac",7900,"Bouvet, Lac",Lac,47.534591,-72.054402,31P09,22902,Lac-Croche,Territoire non organisé,1971-06-01,e1503c55bbeb11d892e2080020a0f4c9,Indifférencié,Austin,Lac,
107065,"Karikitcokomacik",7902,"Bouvreuil, Lac",Lac,47.558611,-74.242285,31O09,62918,Baie-Obaoca,Territoire non organisé,1981-03-05,e17b9217bbeb11d892e2080020a0f4c9,Langue amérindienne indéterminée,Karikitcokomacik,,
71811,"Sherwood, Lac",7945,"Boyd, Lac",Lac,46.532777,-75.283333,31J11,79078,Lac-des-Écorces,Municipalité,1976-09-22,e86c4cf8bbeb11d892e2080020a0f4c9,Anglais,Sherwood,Lac,
78049,"Léonard, Lac",8041,"Brandis, Lac",Lac,47.558611,-74.636110,31O10,79910,Lac-Bazinet,Territoire non organisé,1978-08-17,f6d236f8bbeb11d892e2080020a0f4c9,Français,Léonard,Lac,
1927,"Arezzo, Lac",8058,"Brans, Lac",Lac,47.068663,-71.571082,21M04,22025,Saint-Gabriel-de-Valcartier,Municipalité,1974-01-22,f93f3f66bbeb11d892e2080020a0f4c9,Autre,Arezzo,Lac,
8066,"Bras, Le",8098,"Henri, Bras d'",Rivière,46.551388,-71.358333,21L11,33035,Saint-Gilles,Municipalité,1974-01-22,fff08141bbeb11d892e2080020a0f4c9,Français,Bras,Le,
21868,"Falardeau, Rivière",8101,"Nord, Bras du",Rivière,48.562855,-70.995860,22D10,94245,Saint-David-de-Falardeau,Municipalité,1975-04-08,0035eeb4bbec11d892e2080020a0f4c9,Français,Falardeau,Rivière,
29537,"Île, Petit lac à l'",8104,"Brasénies, Lac des",Lac,46.394166,-73.739999,31I05,62070,Sainte-Émélie-de-l'Énergie,Municipalité,1972-01-11,005c6276bbec11d892e2080020a0f4c9,Français,Île,Petit lac à l',NA
16186,"Croix, Baie de la",8108,"Groleau, Bras",Baie,47.048330,-72.657247,31P02,35055,Trois-Rives,Municipalité,1990-01-25,0227376abbec11d892e2080020a0f4c9,Français,Croix,Baie de la,
22834,"Fluet, Lac",8148,"Brault, Lac",Lac,45.463308,-71.082738,21E06,30015,Val-Racine,Municipalité,1971-10-19,070e8eb3bbec11d892e2080020a0f4c9,Français,Fluet,Lac,
104343,"Kanapate Ockaskweakamak",8178,"Brebant, Lac",Lac,47.058566,-74.146324,31O01,62906,Baie-de-la-Bouteille,Territoire non organisé,1981-07-09,0b698479bbec11d892e2080020a0f4c9,Attikamek,Kanapate Ockaskweakamak,,
8184,"Brébeuf",451626,"Brébeuf",Municipalité de paroisse,46.074554,-74.672054,31J02,78075,Brébeuf,Municipalité,2024-03-13,0bb189fdbbec11d892e2080020a0f4c9,Français,Brébeuf,,H
70120,"Levington, Pointe",8203,"Breezy, Pointe",Pointe,45.109772,-74.409525,31G01,69070,Saint-Anicet,Municipalité,1976-09-22,0fafe0ccbbec11d892e2080020a0f4c9,Anglais,Levington,Pointe,
78550,"Asinni, Lac",8204,"Bref, Lac",Lac,48.152500,-73.534999,32A04,90012,La Tuque,Ville,1978-08-17,0fc0347dbbec11d892e2080020a0f4c9,Cri,Asinni,Lac,
32197,"Keepover, Lac",8272,"Brian, Lac",Lac,46.763055,-76.675554,31K15,83902,Lac-Pythonga,Territoire non organisé,1975-04-08,192c77c0bbec11d892e2080020a0f4c9,Anglais,Keepover,Lac,
63991,"Trudel, Lac",8280,"Briare, Lac",Lac,47.413330,-71.509819,21M05,21904,Lac-Jacques-Cartier,Territoire non organisé,1971-06-01,1b382647bbec11d892e2080020a0f4c9,Français,Trudel,Lac,
104463,"Ekarecakweci Sakahikan",8294,"Bride, Lac",Lac,47.313477,-74.505386,31O07,62920,Baie-Atibenne,Territoire non organisé,1981-07-09,1d77b513bbec11d892e2080020a0f4c9,Langue amérindienne indéterminée,Ekarecakweci Sakahikan,,
8316,"Brien, Ruisseau",,,Ruisseau,45.749444,-73.446666,31H11,60013,Repentigny,Ville,2000-03-29,316b1e0adfa242cb9ce7861593763862,Indifférencié,Brien,Ruisseau,
59182,"Serge, Lac",8342,"Brigon, Lac",Lac,49.830277,-73.938333,32H13,91902,Lac-Ashuapmushuan,Territoire non organisé,1972-03-28,23f6ea74bbec11d892e2080020a0f4c9,Français,Serge,Lac,
37233,"Loutre, Lac à la",8377,"Brisé, Lac",Lac,46.662500,-73.592221,31I12,62906,Baie-de-la-Bouteille,Territoire non organisé,1972-01-11,2a190bafbbec11d892e2080020a0f4c9,Français,Loutre,Lac à la,
8379,"Brisebois, Lac",,,Lac,45.896666,-73.767221,31H13,63048,Saint-Lin–Laurentides,Ville,2024-10-03,2a27d8c0bbec11d892e2080020a0f4c9,Français,Brisebois,Lac,NA
75257,"Bricard, Lac",8432,"Brizard, Lac",Lac,49.579999,-70.327777,22E09,94930,Mont-Valin,Territoire non organisé,1978-08-17,310b4e34bbec11d892e2080020a0f4c9,Français,Bricard,Lac,
9811,"Calvaire, Lac",8442,"Brochard, Lac",Lac,46.611388,-73.344166,31I11,51065,Saint-Alexis-des-Monts,Municipalité de paroisse,1972-01-11,3357d64ebbec11d892e2080020a0f4c9,Français,Calvaire,Lac,
31518,"Jos, Lac des",8442,"Brochard, Lac",Lac,46.611388,-73.344166,31I11,51065,Saint-Alexis-des-Monts,Municipalité de paroisse,1972-01-11,3357d64ebbec11d892e2080020a0f4c9,Français,Jos,Lac des,
59797,"Simpson, Lac",8442,"Brochard, Lac",Lac,46.611388,-73.344166,31I11,51065,Saint-Alexis-des-Monts,Municipalité de paroisse,1968-12-05,3357d64ebbec11d892e2080020a0f4c9,Anglais,Simpson,Lac,
251839,"Cul-de-Sac, Lac",8473,"Brochet, Lac au",Lac,47.678979,-70.383577,21M09,15025,Notre-Dame-des-Monts,Municipalité,1989-11-16,33af6c33bbec11d892e2080020a0f4c9,Français,Cul-de-Sac,Lac,
49153,"Pike, Lac",8522,"Brochets, Lac aux",Lac,45.774166,-75.492221,31G14,80085,Mulgrave-et-Derry,Municipalité,1969-07-10,381de9f8bbec11d892e2080020a0f4c9,Anglais,Pike,Lac,
221665,"Bras Coupés, Lac",8560,"Brockaby, Lac",Lac,46.963611,-74.927777,31J15,79914,Lac-Oscar,Territoire non organisé,1988-09-15,3cb0dfb0bbec11d892e2080020a0f4c9,Français,Bras Coupés,Lac,
8590,"Brome",,,Division de recensement,45.166666,-72.500000,31H02,46075,Lac-Brome,Ville,1994-08-19,c857130ad9bb4a9e8c1c2b43a66cea7a,Anglais,Brome,,
278,"Adamsville",8605,"Bromont",Municipalité de village,45.319074,-72.645910,31H07,46078,Bromont,Ville,1968-12-05,434b8c50bbec11d892e2080020a0f4c9,Hybride,Adamsville,,NA
72598,"Shefford-Ouest",8605,"Bromont",Municipalité de village,45.319074,-72.645910,31H07,46078,Bromont,Ville,1976-12-24,434b8c50bbec11d892e2080020a0f4c9,Anglais,Shefford-Ouest,,
71965,"Tétreault, Lac",8607,"Bromont, Lac",Lac,45.265833,-72.671666,31H07,46078,Bromont,Ville,1976-02-11,435be001bbec11d892e2080020a0f4c9,Français,Tétreault,Lac,
10929,"Carpentier, Lac",8624,"Brooch, Lac",Lac,50.741944,-67.938888,22J12,96902,Rivière-aux-Outardes,Territoire non organisé,1970-07-15,459f8e7dbbec11d892e2080020a0f4c9,Français,Carpentier,Lac,
10931,"Carpentier, Rivière",8625,"Brooch, Rivière",Rivière,50.713333,-67.804166,22J12,97904,Lac-Walker,Territoire non organisé,1970-07-15,4731a02ebbec11d892e2080020a0f4c9,Français,Carpentier,Rivière,
51151,"Prévost, Lac",8646,"Brosseau, Lac",Lac,46.008055,-74.701944,31J02,78070,Amherst,Municipalité de canton,1970-02-27,49b9d1bbbbec11d892e2080020a0f4c9,Français,Prévost,Lac,
8409,"Brisson, Lac",8690,"Broussard, Lac",Lac,47.926388,-71.653611,21M13,21904,Lac-Jacques-Cartier,Territoire non organisé,1971-06-01,4e716677bbec11d892e2080020a0f4c9,Français,Brisson,Lac,
6806,"Bona, Lac",8746,"Brugnon, Lac",Lac,47.456366,-71.421957,21M06,21904,Lac-Jacques-Cartier,Territoire non organisé,1971-06-01,57478331bbec11d892e2080020a0f4c9,Français,Bona,Lac,
108358,"Piktor Sakahikan",8747,"Bruin, Lac",Lac,47.234333,-73.570593,31P04,35904,Lac-Normand,Territoire non organisé,1981-05-07,57582502bbec11d892e2080020a0f4c9,Langue amérindienne indéterminée,Piktor Sakahikan,,
65464,"Vermillon-Un, Barrage",8755,"Brûlé, Barrage",Barrage,47.307222,-73.539444,31P05,35904,Lac-Normand,Territoire non organisé,1973-06-06,59334da7bbec11d892e2080020a0f4c9,Français,Vermillon-Un,Barrage,
9204,"Burnt, Île",8767,"Brûlée, Île",Île,51.358611,-57.726666,12P05,98010,Bonne-Espérance,Municipalité,1968-12-05,59b0bb0fbbec11d892e2080020a0f4c9,Français,Burnt,Île,
9207,"Burnt, Lac",8769,"Brûlé, Lac",Lac,45.717777,-75.441110,31G11,80085,Mulgrave-et-Derry,Municipalité,1970-03-06,5b886141bbec11d892e2080020a0f4c9,Anglais,Burnt,Lac,
16943,"Dantin, Lac",8805,"Brûlé, Lac",Lac,47.006677,-74.962250,31O02,79914,Lac-Oscar,Territoire non organisé,1988-09-15,5def281fbbec11d892e2080020a0f4c9,Français,Dantin,Lac,
47251,"Pate, Lac",8807,"Brûlé, Lac",Lac,47.046110,-75.394444,31O03,79922,Lac-Douaire,Territoire non organisé,1995-03-31,5e04abf0bbec11d892e2080020a0f4c9,Inconnu,Pate,Lac,
74157,"Cavana, Lac",8823,"Brûlé, Lac",Lac,49.620554,-67.431388,22G11,97022,Port-Cartier,Ville,1977-02-18,5e34e3b3bbec11d892e2080020a0f4c9,Indifférencié,Cavana,Lac,
92332,"Ronde, Île",8892,"Brûlée, Île",Île,48.376666,-68.736110,22C07,10043,Rimouski,Ville,1979-10-29,64e22df2bbec11d892e2080020a0f4c9,Français,Ronde,Île,
61068,"Sugar Dish",8908,"Brûlette, Roche à",Roche,48.506944,-64.168888,22A09,02005,Percé,Ville,1975-01-21,66f6dd2bbbec11d892e2080020a0f4c9,Anglais,Sugar Dish,,
19141,"Douze Milles, Lac",8914,"Brumbell, Lac",Lac,48.539444,-69.460555,22C11,95032,Longue-Rive,Municipalité,1989-09-06,67604d61bbec11d892e2080020a0f4c9,Français,Douze Milles,Lac,
8705,"Brown, Lac",8927,"Brun, Lac",Lac,47.590491,-71.344577,21M11,21904,Lac-Jacques-Cartier,Territoire non organisé,1971-06-01,6996b56cbbec11d892e2080020a0f4c9,Anglais,Brown,Lac,
2147,"Arrow, Lac",8928,"Brun, Lac",Lac,48.545277,-69.357777,22C11,95032,Longue-Rive,Municipalité,1971-10-08,69a645cdbbec11d892e2080020a0f4c9,Anglais,Arrow,Lac,
68189,"Bonneau, Lac",8940,"Bruneau, Lac",Lac,48.467777,-72.884166,32A07,91902,Lac-Ashuapmushuan,Territoire non organisé,1976-02-25,6bda15c7bbec11d892e2080020a0f4c9,Français,Bonneau,Lac,
101856,"Nodjisewan Sibi",8941,"Bruneau, Ruisseau",Ruisseau,49.349721,-78.834166,32E07,99060,Eeyou Istchee Baie-James,Gouvernement régional,1981-03-05,6becda78bbec11d892e2080020a0f4c9,Algonquin,Nodjisewan Sibi,,NA
37867,"Madeleine, Lac",8973,"Brussaux, Lac",Lac,47.549299,-71.469018,21M11,21904,Lac-Jacques-Cartier,Territoire non organisé,1971-06-01,72976592bbec11d892e2080020a0f4c9,Français,Madeleine,Lac,
68412,"Caribou, Lac du",8998,"Bryas, Lac",Lac,46.708611,-73.011944,31I11,36033,Shawinigan,Ville,1971-02-11,74f9bf9fbbec11d892e2080020a0f4c9,Langue amérindienne indéterminée,Caribou,Lac du,
73846,"Casabon, Lac",8998,"Bryas, Lac",Lac,46.708611,-73.011944,31I11,36033,Shawinigan,Ville,1977-02-18,74f9bf9fbbec11d892e2080020a0f4c9,Français,Casabon,Lac,
45532,"Onglet, Lac",9020,"Bubie, Lac",Lac,49.361944,-73.997499,32H05,91902,Lac-Ashuapmushuan,Territoire non organisé,1972-03-28,779f161fbbec11d892e2080020a0f4c9,Français,Onglet,Lac,
103550,"Bouffon, Lac",9083,"Buffon, Lac",Lac,46.998888,-72.486666,31I16,35010,Lac-aux-Sables,Municipalité de paroisse,1981-05-07,8056fd79bbec11d892e2080020a0f4c9,Français,Bouffon,Lac,
77677,"Vert, Lac",9085,"Bug, Lac",Lac,46.977777,-74.287499,31J16,62908,Lac-Matawin,Territoire non organisé,1978-08-17,8065f19abbec11d892e2080020a0f4c9,Français,Vert,Lac,
40901,"Michel, Lac",9088,"Bugon, Lac",Lac,50.704722,-74.939721,32J10,99060,Eeyou Istchee Baie-James,Gouvernement régional,1971-06-18,82191fddbbec11d892e2080020a0f4c9,Français,Michel,Lac,
78818,"Landry, Lac des",9110,"Bulhon, Lac",Lac,48.956833,-73.027549,32A14,92904,Rivière-Mistassini,Territoire non organisé,1978-08-17,84eab581bbec11d892e2080020a0f4c9,Français,Landry,Lac des,
1916,"Arenaine, Lac",9131,"Bull Rock, Lac",Lac,47.858950,-79.411644,31M14,85100,Nédélec,Municipalité de canton,1988-03-09,88b922aebbec11d892e2080020a0f4c9,Français,Arenaine,Lac,
9237,"Burroughs, Chute",397035,"Burroughs, Chutes",Chute,45.151250,-72.020777,31H01,44050,Stanstead-Est,Municipalité,2021-10-07,96504b03bbec11d892e2080020a0f4c9,Anglais,Burroughs,Chute,H
45770,"Orignal, Ruisseau de l'",9265,"Bush, Ruisseau",Ruisseau,46.555277,-75.513333,31J12,79088,Mont-Laurier,Ville,1975-04-08,9a8f5456bbec11d892e2080020a0f4c9,Français,Orignal,Ruisseau de l',
100231,"Géromoco, Lac",9270,"Busque, Lac",Lac,47.275593,-71.769835,21M05,34902,Lac-Blanc,Territoire non organisé,1981-04-02,c6538d99bbec11d892e2080020a0f4c9,Autre,Géromoco,Lac,
48901,"Pichette, Ruisseau",9289,"Buteau, Ruisseau",Ruisseau,46.709444,-71.119721,21L11,19068,Saint-Henri,Municipalité,1974-03-28,ce53215bbbec11d892e2080020a0f4c9,Français,Pichette,Ruisseau,
104670,"Kawacekamik",9294,"Buteux, Lac",Lac,48.974816,-75.146924,32B14,90012,La Tuque,Ville,1981-07-09,cedee6a0bbec11d892e2080020a0f4c9,Langue amérindienne indéterminée,Kawacekamik,,
15682,"Cove Beach",9297,"Butler, Anse à",Anse,48.501944,-64.179443,22A09,02005,Percé,Ville,1975-01-21,cf359222bbec11d892e2080020a0f4c9,Anglais,Cove Beach,,
69012,"Divet, Pointe",9299,"Butler, Pointe",Pointe,50.295560,-63.880893,12L05,98040,Havre-Saint-Pierre,Municipalité,1975-09-23,cf884604bbec11d892e2080020a0f4c9,Français,Divet,Pointe,
15683,"Cove Point",9300,"Butler, Pointe à",Pointe,48.503333,-64.179721,22A09,02005,Percé,Ville,1975-01-21,cf99d235bbec11d892e2080020a0f4c9,Anglais,Cove Point,,
42779,"Mound, Île",9321,"Butte, Île à la",Île,50.385555,-59.761111,12J05,98015,Côte-Nord-du-Golfe-du-Saint-Laurent,Municipalité,1969-08-04,d4880746bbec11d892e2080020a0f4c9,Anglais,Mound,Île,
32624,"Knoll, Lac",9323,"Butte, Lac de la",Lac,49.308055,-69.778332,22F05,95902,Lac-au-Brochet,Territoire non organisé,1974-08-02,d4c425e8bbec11d892e2080020a0f4c9,Anglais,Knoll,Lac,
80933,"Luc, Lac",9352,"Byre, Lac",Lac,47.954005,-73.626224,31P13,90012,La Tuque,Ville,1977-08-08,d9faae9ebbec11d892e2080020a0f4c9,Français,Luc,Lac,
43034,"Muraille, Rivière",9374,"Cabanage, Rivière du",Rivière,48.216943,-70.079999,22D01,94205,Petit-Saguenay,Municipalité,1971-10-08,de998b2fbbec11d892e2080020a0f4c9,Français,Muraille,Rivière,
43711,"Nelson, Lac",9379,"Cabane, Lac à la",Lac,47.182499,-72.009444,31P01,34904,Linton,Territoire non organisé,1971-06-18,ded77e92bbec11d892e2080020a0f4c9,Anglais,Nelson,Lac,
21092,"Épinette, Lac",9393,"Cabane d'Automne, Lac à la",Lac,47.160911,-71.975527,21M04,34904,Linton,Territoire non organisé,1971-06-01,e106457bbbec11d892e2080020a0f4c9,Français,Épinette,Lac,
19022,"Douai, Lac",9474,"Caché, Lac",Lac,46.521388,-73.094166,31I11,51065,Saint-Alexis-des-Monts,Municipalité de paroisse,1975-03-06,efa5dc20bbec11d892e2080020a0f4c9,Français,Douai,Lac,
71772,"Secret, Lac",9479,"Caché, Lac",Lac,46.556388,-75.036666,31J11,79037,Rivière-Rouge,Ville,1975-12-02,efb6cc11bbec11d892e2080020a0f4c9,Français,Secret,Lac,
31559,"Joseph-Dupuis, Ruisseau à",9535,"Cachée, Rivière",Ruisseau,46.152777,-73.051111,31I03,52055,Saint-Barthélemy,Municipalité de paroisse,1975-01-21,f8b1d6e8bbec11d892e2080020a0f4c9,Français,Joseph-Dupuis,Ruisseau à,
42517,"Morin, Petit lac",9577,"Cadieux, Lac",Lac,48.033469,-71.598646,22D04,93906,Lac-Achouakan,Territoire non organisé,1971-06-01,ffa5c718bbec11d892e2080020a0f4c9,Français,Morin,Petit lac,
70684,"Numéro Trois, Lac",9627,"Cahill, Lac",Lac,46.597777,-74.937499,31J10,79050,L'Ascension,Municipalité,1976-06-14,06f45a70bbed11d892e2080020a0f4c9,Français,Numéro Trois,Lac,
6003,"Black Hawk, Île",9643,"Caille Noire, Île de la",Île,50.196110,-60.655000,12K02,98015,Côte-Nord-du-Golfe-du-Saint-Laurent,Municipalité,1968-12-05,094fd6abbbed11d892e2080020a0f4c9,Anglais,Black Hawk,Île,
16390,"Cuistre, Lac",9652,"Cailloux, Lac aux",Lac,47.859444,-71.908888,21M13,21904,Lac-Jacques-Cartier,Territoire non organisé,1971-06-01,0ba70d23bbed11d892e2080020a0f4c9,Français,Cuistre,Lac,
81689,"Baillie, Rivière",9658,"Cailloux, Rivière aux",Rivière,49.648888,-63.868610,12E12,98020,L'Île-d'Anticosti,Municipalité,1974-09-12,0dc02929bbed11d892e2080020a0f4c9,Français,Baillie,Rivière,
47041,"Particulier, Lac",9663,"Cailly, Lac",Lac,46.580554,-73.099444,31I11,51065,Saint-Alexis-des-Monts,Municipalité de paroisse,1972-01-11,0e26da3dbbed11d892e2080020a0f4c9,Français,Particulier,Lac,
3266,"Baloney, Lac",9752,"Calla, Lac",Lac,46.038888,-75.200833,31J03,80135,Duhamel,Municipalité,1975-04-08,1d4a6eeebbed11d892e2080020a0f4c9,Français,Baloney,Lac,
18796,"Don, Lac du",9752,"Calla, Lac",Lac,46.038888,-75.200833,31J03,80135,Duhamel,Municipalité,1975-04-08,1d4a6eeebbed11d892e2080020a0f4c9,Français,Don,Lac du,
80355,"Calumet, Grand lac",9794,"Calumet, Lac du",Lac,47.739999,-73.046110,31P11,90012,La Tuque,Ville,1977-08-08,2219f877bbed11d892e2080020a0f4c9,Français,Calumet,Grand lac,
100212,"Caribou, Lac",9825,"Calvi, Lac",Lac,47.206861,-71.877104,21M04,34902,Lac-Blanc,Territoire non organisé,1981-04-02,26a8a76cbbed11d892e2080020a0f4c9,Langue amérindienne indéterminée,Caribou,Lac,
9876,"Cameron, Lac",9862,"Caméra, Lac",Lac,46.966666,-75.558055,31J13,79922,Lac-Douaire,Territoire non organisé,1986-11-06,2d4bb87bbbed11d892e2080020a0f4c9,Anglais,Cameron,Lac,
9549,"Cachot, Lac",9922,"Camp, Lac du",Lac,46.570554,-73.436110,31I11,62906,Baie-de-la-Bouteille,Territoire non organisé,1972-01-11,718c8f85bbed11d892e2080020a0f4c9,Français,Cachot,Lac,
46003,"Otter, Lac",9939,"Camp, Lac du",Lac,48.838399,-74.171004,32B16,91902,Lac-Ashuapmushuan,Territoire non organisé,1972-03-28,756d4c30bbed11d892e2080020a0f4c9,Anglais,Otter,Lac,
18163,"Deux Cantons, Lac des",9945,"Camp, Lac du",Lac,49.440555,-67.505555,22G05,96005,Baie-Trinité,Municipalité de village,1975-04-08,75c07543bbed11d892e2080020a0f4c9,Français,Deux Cantons,Lac des,
10008,"Camp-Marcel",,,Hameau,46.236110,-73.646110,31I04,62020,Sainte-Béatrix,Municipalité,1997-12-12,17cc62c08dfc4a9bb3f4cda1aa988dff,Français,Camp-Marcel,,
8942,"Brunel, Lac",10026,"Canadien, Lac",Lac,46.102222,-73.867221,31I04,62047,Chertsey,Municipalité,1996-08-16,81ea03c9bbed11d892e2080020a0f4c9,Français,Brunel,Lac,
107043,"Savar Cakahikanicic",10046,"Canapé, Lac",Lac,47.544444,-74.195277,31O09,62918,Baie-Obaoca,Territoire non organisé,1981-03-05,8488a387bbed11d892e2080020a0f4c9,Attikamek,Savar Cakahikanicic,,
66937,"Westaurn, Lac",10074,"Canard, Lac au",Lac,47.021282,-71.675882,21M04,22025,Saint-Gabriel-de-Valcartier,Municipalité,1971-06-01,87112332bbed11d892e2080020a0f4c9,Anglais,Westaurn,Lac,
8270,"Brian, Lac",10113,"Canard Blanc, Deuxième lac du",Lac,46.038888,-75.215000,31J03,80135,Duhamel,Municipalité,1975-04-08,8dba9cddbbed11d892e2080020a0f4c9,Français,Brian,Lac,
6001,"Black Duck Cove",10116,"Canard Noir, Anse du",Anse,51.406944,-57.777221,12P05,98010,Bonne-Espérance,Municipalité,1971-06-18,8de3819fbbed11d892e2080020a0f4c9,Anglais,Black Duck Cove,,
1919,"Argentenay, Anse",10118,"Canards, Anse aux",Anse,47.019999,-70.825554,21M02,20005,Saint-François-de-l'Île-d'Orléans,Municipalité,1974-08-02,8e0ab8b1bbed11d892e2080020a0f4c9,Français,Argentenay,Anse,
57245,"Saint-Michel, Lac",10126,"Canards, Lac aux",Lac,46.833610,-70.814722,21L15,19082,Saint-Raphaël,Municipalité,1975-01-21,8e8fa027bbed11d892e2080020a0f4c9,Français,Saint-Michel,Lac,
11466,"Castors, Lac des",10133,"Canards, Lac aux",Lac,48.434019,-71.346683,22D06,94068,Saguenay,Ville,1975-01-21,908fdcfdbbed11d892e2080020a0f4c9,Français,Castors,Lac des,
19467,"Ducks, Lac",10135,"Canards, Lac aux",Étang,48.631388,-64.395277,22A09,02005,Percé,Ville,1975-01-21,90a2a1aebbed11d892e2080020a0f4c9,Anglais,Ducks,Lac,
100211,"Damien, Lac",10167,"Candor, Lac",Lac,47.196388,-71.931666,21M04,34902,Lac-Blanc,Territoire non organisé,1981-04-02,95a681a5bbed11d892e2080020a0f4c9,Français,Damien,Lac,
10069,"Canard, Lac",10170,"Cane, Lac de la",Lac,47.540788,-71.081241,21M11,21904,Lac-Jacques-Cartier,Territoire non organisé,1971-06-01,9611c698bbed11d892e2080020a0f4c9,Français,Canard,Lac,
61431,"Tadpole, Lac",10175,"Canelier, Lac",Lac,48.853055,-74.188888,32B16,91902,Lac-Ashuapmushuan,Territoire non organisé,1972-03-28,97c6c99bbbed11d892e2080020a0f4c9,Anglais,Tadpole,Lac,
104622,"Matciskan",10325,"Canusio, Lac",Lac,48.545816,-75.797769,32B12,89040,Senneterre,Ville,1981-07-09,eac6cd35bbed11d892e2080020a0f4c9,Attikamek,Matciskan,,
208063,"Kawakonikagamak",10329,"Canyon, Ruisseau du",Section de cours d'eau,48.230377,-76.637494,32C07,89040,Senneterre,Ville,2017-03-03,ecd11c28bbed11d892e2080020a0f4c9,Algonquin,Kawakonikagamak,,
26232,"Grand Caouette, Ruisseau",10344,"Caouette, Ruisseau",Ruisseau,45.773332,-70.522499,21E15,30070,Saint-Robert-Bellarmin,Municipalité,1973-11-20,ef4c0744bbed11d892e2080020a0f4c9,Français,Grand Caouette,Ruisseau,
45019,"Numéro Quatre, Lac",10371,"Cap, Lac du",Lac,47.975832,-69.913888,21N13,15058,Saint-Siméon,Municipalité,1974-08-02,f2831676bbed11d892e2080020a0f4c9,Français,Numéro Quatre,Lac,
10515,"Capucins",10407,"Cap-Chat",Municipalité,49.096349,-66.687721,22G02,04047,Cap-Chat,Ville,2000-03-29,f8c89e30bbed11d892e2080020a0f4c9,Français,Capucins,,
29931,"Indian, Lac",10514,"Capucins, Lac des",Lac,48.047777,-66.739721,22B02,06804,Listuguj,Réserve indienne,1974-09-12,06d0fef0bbee11d892e2080020a0f4c9,Anglais,Indian,Lac,
104602,"Masinaskohikanicic",10525,"Carabine, Lac",Lac,47.106111,-74.502777,31O02,79912,Lac-De La Bidière,Territoire non organisé,1981-07-09,08a793b7bbee11d892e2080020a0f4c9,Attikamek,Masinaskohikanicic,,
10635,"Caribou, Lac",10544,"Carbonel, Lac",Lac,47.605000,-70.700277,21M10,16902,Lac-Pikauba,Territoire non organisé,1975-01-21,0af79d49bbee11d892e2080020a0f4c9,Langue amérindienne indéterminée,Caribou,Lac,
37599,"Lyagre, Lac",10549,"Carbonneau, Lac",Lac,47.933054,-71.819166,21M13,21904,Lac-Jacques-Cartier,Territoire non organisé,1971-06-01,0c96592cbbee11d892e2080020a0f4c9,Français,Lyagre,Lac,
10552,"Carbonneau, Pont",417973,"Saint-Félicien, Pont",Pont,48.658888,-72.445833,32A09,91042,Saint-Félicien,Ville,2021-06-10,0cb4416fbbee11d892e2080020a0f4c9,Français,Carbonneau,Pont,H
81793,"Jean, Lac",10586,"Cardin, Lac",Lac,46.590555,-74.273332,31J09,62910,Lac-Legendre,Territoire non organisé,1972-05-12,10baae99bbee11d892e2080020a0f4c9,Français,Jean,Lac,
40853,"Michaud, Lac",10596,"Cardinal, Lac du",Lac,47.495835,-71.506802,21M05,21904,Lac-Jacques-Cartier,Territoire non organisé,1971-06-01,12938d53bbee11d892e2080020a0f4c9,Français,Michaud,Lac,
78658,"Sachem, Grand lac",10608,"Caresse, Lac de la",Lac,48.267221,-73.790555,32A05,90012,La Tuque,Ville,1978-08-17,146259edbbee11d892e2080020a0f4c9,Français,Sachem,Grand lac,
45677,"Organ, Île",10622,"Caribou, Île",Île,50.867777,-58.941388,12J15,98014,Gros-Mécatina,Municipalité,1973-11-20,163a4e48bbee11d892e2080020a0f4c9,Inconnu,Organ,Île,
46409,"Ovila, Lac",10628,"Caribou, Lac",Lac,46.438888,-73.665555,31I05,62080,Saint-Zénon,Municipalité,1989-03-29,1651a6dbbbee11d892e2080020a0f4c9,Français,Ovila,Lac,
4966,"Bellisle, Lac",10660,"Caribou, Lac du",Lac,47.165319,-78.961652,31M02,85020,Béarn,Municipalité,1972-05-15,1835f747bbee11d892e2080020a0f4c9,Français,Bellisle,Lac,
49456,"Pin Rouge, Lac du",10667,"Caribou, Lac du",Lac,47.378332,-78.604722,31M07,85065,Belleterre,Ville,1972-05-15,19d37aabbbee11d892e2080020a0f4c9,Français,Pin Rouge,Lac du,
21646,"Eugène, Lac",10670,"Caribou, Lac du",Lac,47.627221,-70.983888,21M10,16902,Lac-Pikauba,Territoire non organisé,1971-06-01,19e3592dbbee11d892e2080020a0f4c9,Français,Eugène,Lac,NA
9667,"Caire, Lac",10673,"Caribou, Lac du",Lac,47.905533,-78.900038,31M15,86042,Rouyn-Noranda,Ville,1970-07-15,19f867d0bbee11d892e2080020a0f4c9,Français,Caire,Lac,
77576,"Provost, Lac",10693,"Caribou, Petit lac du",Lac,46.956111,-72.846388,31I15,35055,Trois-Rives,Municipalité,1978-08-17,1d833c4fbbee11d892e2080020a0f4c9,Français,Provost,Lac,
63521,"Tremblay, Ruisseau",10706,"Caribou, Rivière",Rivière,48.455441,-71.010811,22D06,94068,Saguenay,Ville,1973-11-20,1dababe5bbee11d892e2080020a0f4c9,Français,Tremblay,Ruisseau,
234322,"Caribous, Premier Petit lac des",10726,"Caribous, Petit lac des",Lac,49.104166,-69.908055,22F04,95902,Lac-au-Brochet,Territoire non organisé,1989-03-29,1f837932bbee11d892e2080020a0f4c9,Français,Caribous,Premier Petit lac des,
234323,"Caribous, Deuxième Petit lac des",10726,"Caribous, Petit lac des",Lac,49.104166,-69.908055,22F04,95902,Lac-au-Brochet,Territoire non organisé,1989-03-29,1f837932bbee11d892e2080020a0f4c9,Français,Caribous,Deuxième Petit lac des,
66914,"West Channel",10728,"Caribous, Passe aux",Passe,51.410833,-57.710277,12P05,98010,Bonne-Espérance,Municipalité,1968-12-05,1f902364bbee11d892e2080020a0f4c9,Anglais,West Channel,,
54295,"Rompré, Lac",10731,"Carifel, Lac des",Lac,48.466111,-77.632499,32C05,88022,Barraute,Municipalité,1973-07-18,2125de97bbee11d892e2080020a0f4c9,Français,Rompré,Lac,
10765,"Carleton Centre",,,Secteur,48.106666,-66.131666,22B01,06013,Carleton-sur-Mer,Ville,2000-11-09,9ecbe13b5c594bc984a954f9e3f4a5cb,Anglais,Carleton Centre,,
23303,"Fou, Lac",10845,"Caron, Lac",Lac,46.625277,-72.793333,31I10,36033,Shawinigan,Ville,1975-03-06,2fa20fd0bbee11d892e2080020a0f4c9,Français,Fou,Lac,
52580,"Ravin, Lac",10847,"Caron, Lac",Lac,47.644999,-70.711944,21M10,16902,Lac-Pikauba,Territoire non organisé,1971-06-01,2fafa462bbee11d892e2080020a0f4c9,Français,Ravin,Lac,
77287,"Tour, Deuxième lac de la",10875,"Carotte, Lac",Lac,46.527777,-73.698055,31I12,62080,Saint-Zénon,Municipalité,1978-08-17,334d64a8bbee11d892e2080020a0f4c9,Français,Tour,Deuxième lac de la,
70155,"Long, Lac",10897,"Carpe, Lac à la",Lac,46.479999,-75.579443,31J05,79088,Mont-Laurier,Ville,1976-06-14,3516d913bbee11d892e2080020a0f4c9,Français,Long,Lac,
80376,"Carpenter, Lac",10926,"Carpentier, Lac",Lac,47.957222,-73.583333,31P13,90012,La Tuque,Ville,1977-08-08,38c8e4aabbee11d892e2080020a0f4c9,Anglais,Carpenter,Lac,
58762,"Schick, Lac",10940,"Carquois, Lac",Lac,49.153888,-74.133054,32G01,91902,Lac-Ashuapmushuan,Territoire non organisé,1972-03-28,3a8e6274bbee11d892e2080020a0f4c9,Anglais,Schick,Lac,
50641,"Portage, Lac du",10958,"Carré, Lac",Lac,46.607222,-73.924721,31I12,62085,Saint-Michel-des-Saints,Municipalité,1972-01-11,3c5fee30bbee11d892e2080020a0f4c9,Français,Portage,Lac du,
78605,"Foin, Lac à",10967,"Carré, Lac",Lac,48.274721,-73.585277,32A05,90012,La Tuque,Ville,1978-08-17,3e136a97bbee11d892e2080020a0f4c9,Français,Foin,Lac à,
60618,"Square, Lac",10975,"Carré, Lac",Lac,50.211388,-67.043610,22J03,97904,Lac-Walker,Territoire non organisé,1975-04-08,3e3faabdbbee11d892e2080020a0f4c9,Anglais,Square,Lac,
110152,"Cartier, Lac",11004,"Carrier, Lac",Lac,49.128332,-69.990833,22F04,95902,Lac-au-Brochet,Territoire non organisé,1982-07-08,41cf3a30bbee11d892e2080020a0f4c9,Français,Cartier,Lac,
11028,"Carrot, Lac",11025,"Carroll, Lac",Lac,47.542944,-71.058391,21M11,21904,Lac-Jacques-Cartier,Territoire non organisé,1975-01-21,4548d0a1bbee11d892e2080020a0f4c9,Anglais,Carrot,Lac,
186428,"Qarqajuup Tasinga",11087,"Carye, Lac",Lac,61.151111,-77.221110,35F03,99904,Baie-d'Hudson,Territoire non organisé,1987-06-25,4cbb3fb0bbee11d892e2080020a0f4c9,Inuktitut,Qarqajuup Tasinga,,
186429,"Qaqqajuup Tasinga",11087,"Carye, Lac",Lac,61.151111,-77.221110,35F03,99904,Baie-d'Hudson,Territoire non organisé,1987-06-25,4cbb3fb0bbee11d892e2080020a0f4c9,Inuktitut,Qaqqajuup Tasinga,,
65585,"Vert, Lac",11088,"Caryer, Lac",Lac,46.231388,-75.237499,31J03,79924,Lac-Ernest,Territoire non organisé,1974-03-28,4cc1cf61bbee11d892e2080020a0f4c9,Français,Vert,Lac,
60527,"Split, Lac",11162,"Casseau, Lac",Lac,46.118332,-74.075554,31J01,78802,Doncaster,Réserve indienne,1969-01-24,55b49ce5bbee11d892e2080020a0f4c9,Anglais,Split,Lac,
97228,"Christopher, Lac",11171,"Casse-Ligne, Lac du",Lac,47.615788,-72.095541,31P09,22902,Lac-Croche,Territoire non organisé,1978-08-17,55e98f9cbbee11d892e2080020a0f4c9,Anglais,Christopher,Lac,
77838,"Cassian, Premier lac",11179,"Cassian, Lac",Lac,47.099577,-71.528368,21M04,22035,Stoneham-et-Tewkesbury,Municipalité de cantons unis,1978-08-17,578eb421bbee11d892e2080020a0f4c9,Français,Cassian,Premier lac,
77839,"Cassian, Deuxième lac",11179,"Cassian, Lac",Lac,47.099577,-71.528368,21M04,22035,Stoneham-et-Tewkesbury,Municipalité de cantons unis,1978-08-17,578eb421bbee11d892e2080020a0f4c9,Français,Cassian,Deuxième lac,
9684,"Caissonette, Pointe",11203,"Castagner, Pointe",Pointe,45.149324,-74.353083,31G01,69070,Saint-Anicet,Municipalité,1970-06-12,59772340bbee11d892e2080020a0f4c9,Français,Caissonette,Pointe,
77523,"Sylvestre, Pointe",11208,"Castagnier, Pointe",Pointe,45.108752,-74.414211,31G01,69070,Saint-Anicet,Municipalité,1978-08-17,5b173eb5bbee11d892e2080020a0f4c9,Français,Sylvestre,Pointe,
80354,"Cadorette, Lac",11217,"Castelard, Lac",Lac,47.284444,-72.914722,31P07,90012,La Tuque,Ville,1977-08-08,5b47ebacbbee11d892e2080020a0f4c9,Français,Cadorette,Lac,H
82372,"Saumon, Rivière",11222,"Castelnau, Ruisseau",Ruisseau,46.744444,-75.013055,31J11,79037,Rivière-Rouge,Ville,1978-08-17,5cea2a01bbee11d892e2080020a0f4c9,Français,Saumon,Rivière,
104317,"Acohonanik",11223,"Castelveyre, Lac",Lac,47.160555,-74.129166,31O01,62906,Baie-de-la-Bouteille,Territoire non organisé,1981-07-09,5cf092a2bbee11d892e2080020a0f4c9,Attikamek,Acohonanik,,
81692,"Beaver, Anse",11247,"Castor, Anse du",Anse,49.813333,-63.323054,12E14,98020,L'Île-d'Anticosti,Municipalité,1974-09-12,5ef49f15bbee11d892e2080020a0f4c9,Anglais,Beaver,Anse,
14294,"Cobaz, Lac",11290,"Castor, Lac",Lac,47.349610,-70.736824,21M07,16013,Baie-Saint-Paul,Ville,1997-03-25,60afbc9ebbee11d892e2080020a0f4c9,Inconnu,Cobaz,Lac,
12255,"Changy, Lac",11294,"Castor, Lac du",Lac,47.755833,-72.686666,31P15,90012,La Tuque,Ville,1991-08-02,60b6253fbbee11d892e2080020a0f4c9,Français,Changy,Lac,
4447,"Beaver, Lac",11325,"Castor, Lac du",Lac,46.252777,-77.750833,31K05,84100,Rapides-des-Joachims,Municipalité,1970-02-27,627fc1b9bbee11d892e2080020a0f4c9,Anglais,Beaver,Lac,
46535,"Pagé, Lac à",11327,"Castor, Lac du",Lac,46.278610,-74.063888,31J08,62055,Notre-Dame-de-la-Merci,Municipalité,1974-01-22,62869f8abbee11d892e2080020a0f4c9,Français,Pagé,Lac à,
17545,"Delta, Lac",11334,"Castor, Lac du",Lac,46.581388,-73.137221,31I11,51065,Saint-Alexis-des-Monts,Municipalité de paroisse,1972-01-11,642a3d6fbbee11d892e2080020a0f4c9,Indifférencié,Delta,Lac,
4462,"Beaver, Lac",11346,"Castor, Lac du",Lac,47.265413,-71.298763,21M06,21904,Lac-Jacques-Cartier,Territoire non organisé,1971-06-01,65e979a8bbee11d892e2080020a0f4c9,Anglais,Beaver,Lac,NA
3610,"Barré, Lac",11391,"Castor, Lacs du",Lac,46.316388,-73.725554,31I05,62070,Sainte-Émélie-de-l'Énergie,Municipalité,1972-05-12,a754263dbbee11d892e2080020a0f4c9,Français,Barré,Lac,
35380,"Lemieux, Lacs",11391,"Castor, Lacs du",Lacs,46.316388,-73.725554,31I05,62070,Sainte-Émélie-de-l'Énergie,Municipalité,1972-01-11,a754263dbbee11d892e2080020a0f4c9,Français,Lemieux,Lacs,
4482,"Beaver, Ruisseau",11406,"Castor, Ruisseau au",Ruisseau,45.741110,-71.034721,21E11,30100,Saint-Romain,Municipalité,1974-03-28,a984c1e5bbee11d892e2080020a0f4c9,Anglais,Beaver,Ruisseau,
8880,"Brûlé, Ruisseau",11418,"Castor, Ruisseau du",Ruisseau,48.072777,-68.261944,22C01,10902,Lac-Huron,Territoire non organisé,1973-07-18,aa293f4dbbee11d892e2080020a0f4c9,Français,Brûlé,Ruisseau,
243165,"Upishkutuian",11431,"Castoréum, Rivière",Section de cours d'eau,50.581666,-69.107777,22K11,96902,Rivière-aux-Outardes,Territoire non organisé,2017-03-03,ae3b1e19bbee11d892e2080020a0f4c9,Innu,Upishkutuian,,
4446,"Beaver, Lac",11462,"Castors, Lac des",Lac,46.157500,-74.123610,31J01,78802,Doncaster,Réserve indienne,1969-01-24,b34df233bbee11d892e2080020a0f4c9,Anglais,Beaver,Lac,
75016,"Blanche, Petite rivière",11476,"Castors, Rivière des",Rivière,46.547777,-70.239444,21L09,28075,Saint-Magloire,Municipalité,1978-08-17,b559a0babbee11d892e2080020a0f4c9,Français,Blanche,Petite rivière,
